{
"type": "FeatureCollection",
"name": "hotosm_ind_railways_points_geojson",
"features": [
{ "type": "Feature", "properties": { "name": "Banisar", "name:en": null, "railway": "station", "ele": null, "operator:type": null, "layer": null, "addr:full": null, "addr:city": null, "source": null, "name:hi": null, "name:ta": null, "osm_id": 1910223237, "osm_type": "nodes" }, "geometry": { "type": "Point", "coordinates": [ 73.894118, 28.0670125 ] } },
{ "type": "Feature", "properties": { "name": "Deswal", "name:en": null, "railway": "station", "ele": null, "operator:type": null, "layer": null, "addr:full": null, "addr:city": null, "source": null, "name:hi": null, "name:ta": null, "osm_id": 1942486354, "osm_type": "nodes" }, "geometry": { "type": "Point", "coordinates": [ 73.8873115, 26.8436167 ] } },
{ "type": "Feature", "properties": { "name": "Palana", "name:en": null, "railway": "station", "ele": null, "operator:type": null, "layer": null, "addr:full": null, "addr:city": null, "source": null, "name:hi": null, "name:ta": null, "osm_id": 1942486360, "osm_type": "nodes" }, "geometry": { "type": "Point", "coordinates": [ 73.2729363, 27.8524127 ] } },
{ "type": "Feature", "properties": { "name": "Khunkhuna", "name:en": null, "railway": "station", "ele": null, "operator:type": null, "layer": null, "addr:full": null, "addr:city": null, "source": null, "name:hi": null, "name:ta": null, "osm_id": 1942875681, "osm_type": "nodes" }, "geometry": { "type": "Point", "coordinates": [ 74.4927199, 27.2779872 ] } },
{ "type": "Feature", "properties": { "name": "Napasar", "name:en": null, "railway": "station", "ele": null, "operator:type": null, "layer": null, "addr:full": null, "addr:city": null, "source": null, "name:hi": null, "name:ta": null, "osm_id": 360366732, "osm_type": "nodes" }, "geometry": { "type": "Point", "coordinates": [ 73.5637013, 27.9810152 ] } },
{ "type": "Feature", "properties": { "name": "Gotan", "name:en": null, "railway": "station", "ele": null, "operator:type": null, "layer": null, "addr:full": null, "addr:city": null, "source": null, "name:hi": null, "name:ta": null, "osm_id": 2189862833, "osm_type": "nodes" }, "geometry": { "type": "Point", "coordinates": [ 73.7379902, 26.6526809 ] } },
{ "type": "Feature", "properties": { "name": "Marwar Balia", "name:en": null, "railway": "station", "ele": null, "operator:type": null, "layer": null, "addr:full": null, "addr:city": null, "source": null, "name:hi": null, "name:ta": null, "osm_id": 1942875718, "osm_type": "nodes" }, "geometry": { "type": "Point", "coordinates": [ 74.5454744, 27.3584004 ] } },
{ "type": "Feature", "properties": { "name": "Parhihara", "name:en": null, "railway": "station", "ele": null, "operator:type": null, "layer": null, "addr:full": null, "addr:city": null, "source": null, "name:hi": null, "name:ta": null, "osm_id": 1942875733, "osm_type": "nodes" }, "geometry": { "type": "Point", "coordinates": [ 74.5497574, 27.9214219 ] } },
{ "type": "Feature", "properties": { "name": "Hunasenahalli", "name:en": null, "railway": "station", "ele": null, "operator:type": null, "layer": null, "addr:full": null, "addr:city": null, "source": null, "name:hi": null, "name:ta": null, "osm_id": 2559416716, "osm_type": "nodes" }, "geometry": { "type": "Point", "coordinates": [ 77.9467135, 13.4003265 ] } },
{ "type": "Feature", "properties": { "name": "Chintamani", "name:en": null, "railway": "station", "ele": null, "operator:type": null, "layer": null, "addr:full": null, "addr:city": null, "source": null, "name:hi": null, "name:ta": "சிந்தாமணி", "osm_id": 2559419936, "osm_type": "nodes" }, "geometry": { "type": "Point", "coordinates": [ 78.0539956, 13.4109883 ] } },
{ "type": "Feature", "properties": { "name": "Hebbal", "name:en": null, "railway": "station", "ele": null, "operator:type": null, "layer": null, "addr:full": null, "addr:city": null, "source": null, "name:hi": null, "name:ta": null, "osm_id": 2967312447, "osm_type": "nodes" }, "geometry": { "type": "Point", "coordinates": [ 77.5862489, 13.0425476 ] } },
{ "type": "Feature", "properties": { "name": "Banaswadi", "name:en": null, "railway": "station", "ele": null, "operator:type": null, "layer": null, "addr:full": null, "addr:city": null, "source": null, "name:hi": null, "name:ta": null, "osm_id": 443807288, "osm_type": "nodes" }, "geometry": { "type": "Point", "coordinates": [ 77.6281321, 13.0058357 ] } },
{ "type": "Feature", "properties": { "name": "Chikballapur", "name:en": null, "railway": "station", "ele": null, "operator:type": null, "layer": null, "addr:full": null, "addr:city": null, "source": null, "name:hi": null, "name:ta": null, "osm_id": 737744285, "osm_type": "nodes" }, "geometry": { "type": "Point", "coordinates": [ 77.7321433, 13.4274405 ] } },
{ "type": "Feature", "properties": { "name": "Sidlagatta", "name:en": null, "railway": "station", "ele": null, "operator:type": null, "layer": null, "addr:full": null, "addr:city": null, "source": null, "name:hi": null, "name:ta": null, "osm_id": 1404460876, "osm_type": "nodes" }, "geometry": { "type": "Point", "coordinates": [ 77.8641538, 13.3920709 ] } },
{ "type": "Feature", "properties": { "name": "Srinivasapura", "name:en": null, "railway": "station", "ele": null, "operator:type": null, "layer": null, "addr:full": null, "addr:city": null, "source": null, "name:hi": "श्रीनिवासपुर", "name:ta": null, "osm_id": 4142582908, "osm_type": "nodes" }, "geometry": { "type": "Point", "coordinates": [ 78.2067074, 13.3288336 ] } },
{ "type": "Feature", "properties": { "name": "Toppur", "name:en": null, "railway": "station", "ele": null, "operator:type": null, "layer": null, "addr:full": null, "addr:city": null, "source": "bing", "name:hi": null, "name:ta": null, "osm_id": 4688900455, "osm_type": "nodes" }, "geometry": { "type": "Point", "coordinates": [ 78.0700793, 11.9315838 ] } },
{ "type": "Feature", "properties": { "name": "Bisanattam", "name:en": null, "railway": "station", "ele": null, "operator:type": null, "layer": null, "addr:full": null, "addr:city": null, "source": null, "name:hi": null, "name:ta": null, "osm_id": 248543525, "osm_type": "nodes" }, "geometry": { "type": "Point", "coordinates": [ 78.2498583, 12.8422451 ] } },
{ "type": "Feature", "properties": { "name": "Patchur", "name:en": null, "railway": "station", "ele": null, "operator:type": null, "layer": null, "addr:full": null, "addr:city": null, "source": null, "name:hi": null, "name:ta": null, "osm_id": 248543770, "osm_type": "nodes" }, "geometry": { "type": "Point", "coordinates": [ 78.4697329, 12.5865309 ] } },
{ "type": "Feature", "properties": { "name": "Dasampatti", "name:en": null, "railway": "station", "ele": null, "operator:type": null, "layer": null, "addr:full": null, "addr:city": null, "source": null, "name:hi": null, "name:ta": null, "osm_id": 5615288613, "osm_type": "nodes" }, "geometry": { "type": "Point", "coordinates": [ 78.4396477, 12.2519985 ] } },
{ "type": "Feature", "properties": { "name": "Buddireddippatti", "name:en": null, "railway": "station", "ele": null, "operator:type": null, "layer": null, "addr:full": null, "addr:city": null, "source": null, "name:hi": null, "name:ta": null, "osm_id": 5616004256, "osm_type": "nodes" }, "geometry": { "type": "Point", "coordinates": [ 78.3137514, 12.0463079 ] } },
{ "type": "Feature", "properties": { "name": "Bommidi", "name:en": null, "railway": "station", "ele": null, "operator:type": null, "layer": null, "addr:full": null, "addr:city": null, "source": null, "name:hi": "बोम्मिडि", "name:ta": "பொம்மிடி", "osm_id": 5616004257, "osm_type": "nodes" }, "geometry": { "type": "Point", "coordinates": [ 78.2459633, 11.984149 ] } },
{ "type": "Feature", "properties": { "name": "Sivadi", "name:en": null, "railway": "station", "ele": null, "operator:type": null, "layer": null, "addr:full": null, "addr:city": null, "source": null, "name:hi": null, "name:ta": null, "osm_id": 6017330755, "osm_type": "nodes" }, "geometry": { "type": "Point", "coordinates": [ 78.1182781, 12.0390657 ] } },
{ "type": "Feature", "properties": { "name": "Gudupulli", "name:en": null, "railway": "station", "ele": null, "operator:type": null, "layer": null, "addr:full": null, "addr:city": null, "source": null, "name:hi": null, "name:ta": null, "osm_id": 6064300323, "osm_type": "nodes" }, "geometry": { "type": "Point", "coordinates": [ 78.2747707, 12.8034773 ] } },
{ "type": "Feature", "properties": { "name": "Kazipet Junction", "name:en": null, "railway": "station", "ele": null, "operator:type": null, "layer": null, "addr:full": null, "addr:city": null, "source": null, "name:hi": null, "name:ta": null, "osm_id": 5409557426, "osm_type": "nodes" }, "geometry": { "type": "Point", "coordinates": [ 79.5112685, 17.9748271 ] } },
{ "type": "Feature", "properties": { "name": "Faridabad", "name:en": null, "railway": "station", "ele": null, "operator:type": null, "layer": null, "addr:full": null, "addr:city": null, "source": null, "name:hi": null, "name:ta": null, "osm_id": 1572649890, "osm_type": "nodes" }, "geometry": { "type": "Point", "coordinates": [ 77.3070774, 28.4107617 ] } },
{ "type": "Feature", "properties": { "name": "Kasargod", "name:en": null, "railway": "station", "ele": null, "operator:type": null, "layer": null, "addr:full": null, "addr:city": null, "source": null, "name:hi": null, "name:ta": null, "osm_id": 1141008004, "osm_type": "nodes" }, "geometry": { "type": "Point", "coordinates": [ 74.9877613, 12.4914722 ] } },
{ "type": "Feature", "properties": { "name": "Malliyala", "name:en": null, "railway": "station", "ele": null, "operator:type": null, "layer": null, "addr:full": null, "addr:city": null, "source": null, "name:hi": null, "name:ta": null, "osm_id": 603465448, "osm_type": "nodes" }, "geometry": { "type": "Point", "coordinates": [ 77.7753409, 15.3969207 ] } },
{ "type": "Feature", "properties": { "name": "Linganenidoddi", "name:en": null, "railway": "station", "ele": null, "operator:type": null, "layer": null, "addr:full": null, "addr:city": null, "source": null, "name:hi": null, "name:ta": null, "osm_id": 2526937222, "osm_type": "nodes" }, "geometry": { "type": "Point", "coordinates": [ 77.7030377, 15.3989572 ] } },
{ "type": "Feature", "properties": { "name": "Nagarur", "name:en": null, "railway": "station", "ele": null, "operator:type": null, "layer": null, "addr:full": null, "addr:city": null, "source": null, "name:hi": null, "name:ta": null, "osm_id": 2527980610, "osm_type": "nodes" }, "geometry": { "type": "Point", "coordinates": [ 77.3136308, 15.5428674 ] } },
{ "type": "Feature", "properties": { "name": "Kalayat", "name:en": null, "railway": "station", "ele": null, "operator:type": null, "layer": null, "addr:full": null, "addr:city": null, "source": null, "name:hi": null, "name:ta": null, "osm_id": 2629256394, "osm_type": "nodes" }, "geometry": { "type": "Point", "coordinates": [ 76.2281685, 29.678942 ] } },
{ "type": "Feature", "properties": { "name": "Sajuma", "name:en": null, "railway": "station", "ele": null, "operator:type": null, "layer": null, "addr:full": null, "addr:city": null, "source": null, "name:hi": null, "name:ta": null, "osm_id": 2629261070, "osm_type": "nodes" }, "geometry": { "type": "Point", "coordinates": [ 76.2958719, 29.7267534 ] } },
{ "type": "Feature", "properties": { "name": "Pehowa Road", "name:en": null, "railway": "station", "ele": null, "operator:type": null, "layer": null, "addr:full": null, "addr:city": null, "source": null, "name:hi": null, "name:ta": null, "osm_id": 2636626122, "osm_type": "nodes" }, "geometry": { "type": "Point", "coordinates": [ 76.6210932, 29.8840783 ] } },
{ "type": "Feature", "properties": { "name": "Bhopalka", "name:en": null, "railway": "station", "ele": null, "operator:type": null, "layer": null, "addr:full": null, "addr:city": null, "source": null, "name:hi": null, "name:ta": null, "osm_id": 5778923681, "osm_type": "nodes" }, "geometry": { "type": "Point", "coordinates": [ 69.3686012, 22.1226506 ] } },
{ "type": "Feature", "properties": { "name": "Dhirpur", "name:en": null, "railway": "station", "ele": null, "operator:type": null, "layer": null, "addr:full": null, "addr:city": null, "source": null, "name:hi": null, "name:ta": null, "osm_id": 345195495, "osm_type": "nodes" }, "geometry": { "type": "Point", "coordinates": [ 76.8444394, 30.0664157 ] } },
{ "type": "Feature", "properties": { "name": "Pendekallu Junction", "name:en": null, "railway": "station", "ele": null, "operator:type": null, "layer": null, "addr:full": null, "addr:city": null, "source": null, "name:hi": null, "name:ta": null, "osm_id": 603465403, "osm_type": "nodes" }, "geometry": { "type": "Point", "coordinates": [ 77.6485895, 15.3743039 ] } },
{ "type": "Feature", "properties": { "name": "Hansi", "name:en": null, "railway": "station", "ele": null, "operator:type": null, "layer": null, "addr:full": null, "addr:city": null, "source": null, "name:hi": "हांसी", "name:ta": null, "osm_id": 1943016470, "osm_type": "nodes" }, "geometry": { "type": "Point", "coordinates": [ 75.9474465, 29.0881334 ] } },
{ "type": "Feature", "properties": { "name": "Naloi Barwa", "name:en": null, "railway": "station", "ele": null, "operator:type": null, "layer": null, "addr:full": null, "addr:city": null, "source": null, "name:hi": null, "name:ta": null, "osm_id": 1944510141, "osm_type": "nodes" }, "geometry": { "type": "Point", "coordinates": [ 75.6241333, 28.9635296 ] } },
{ "type": "Feature", "properties": { "name": "Dhamtan Sahib", "name:en": null, "railway": "station", "ele": null, "operator:type": null, "layer": null, "addr:full": null, "addr:city": null, "source": null, "name:hi": null, "name:ta": null, "osm_id": 3184988384, "osm_type": "nodes" }, "geometry": { "type": "Point", "coordinates": [ 76.0062911, 29.6873919 ] } },
{ "type": "Feature", "properties": { "name": "Dharodi", "name:en": null, "railway": "station", "ele": null, "operator:type": null, "layer": null, "addr:full": null, "addr:city": null, "source": null, "name:hi": null, "name:ta": null, "osm_id": 3184988387, "osm_type": "nodes" }, "geometry": { "type": "Point", "coordinates": [ 76.0559201, 29.6396593 ] } },
{ "type": "Feature", "properties": { "name": "Pirthala Lalauda", "name:en": null, "railway": "station", "ele": null, "operator:type": null, "layer": null, "addr:full": null, "addr:city": null, "source": null, "name:hi": null, "name:ta": null, "osm_id": 3684738312, "osm_type": "nodes" }, "geometry": { "type": "Point", "coordinates": [ 75.8666908, 29.6233301 ] } },
{ "type": "Feature", "properties": { "name": "Okha Madhi", "name:en": null, "railway": "station", "ele": null, "operator:type": null, "layer": null, "addr:full": null, "addr:city": null, "source": null, "name:hi": null, "name:ta": null, "osm_id": 5778923742, "osm_type": "nodes" }, "geometry": { "type": "Point", "coordinates": [ 69.1039797, 22.0952919 ] } },
{ "type": "Feature", "properties": { "name": "Chegunta", "name:en": null, "railway": "station", "ele": null, "operator:type": null, "layer": null, "addr:full": null, "addr:city": null, "source": null, "name:hi": null, "name:ta": null, "osm_id": 2959802437, "osm_type": "nodes" }, "geometry": { "type": "Point", "coordinates": [ 77.3015629, 16.4857373 ] } },
{ "type": "Feature", "properties": { "name": "Chiksugur", "name:en": null, "railway": "station", "ele": null, "operator:type": null, "layer": null, "addr:full": null, "addr:city": null, "source": null, "name:hi": null, "name:ta": null, "osm_id": 2970003323, "osm_type": "nodes" }, "geometry": { "type": "Point", "coordinates": [ 77.3448444, 16.3359279 ] } },
{ "type": "Feature", "properties": { "name": "Kulgachia", "name:en": null, "railway": "station", "ele": null, "operator:type": null, "layer": null, "addr:full": null, "addr:city": null, "source": null, "name:hi": null, "name:ta": null, "osm_id": 6186391878, "osm_type": "nodes" }, "geometry": { "type": "Point", "coordinates": [ 88.0205997, 22.472091 ] } },
{ "type": "Feature", "properties": { "name": "Kita", "name:en": null, "railway": "station", "ele": null, "operator:type": null, "layer": null, "addr:full": null, "addr:city": null, "source": null, "name:hi": null, "name:ta": null, "osm_id": 1317054202, "osm_type": "nodes" }, "geometry": { "type": "Point", "coordinates": [ 85.7608427, 23.3641962 ] } },
{ "type": "Feature", "properties": { "name": "Thiruvananthapuram Central", "name:en": null, "railway": "station", "ele": null, "operator:type": null, "layer": null, "addr:full": null, "addr:city": null, "source": null, "name:hi": "तिरुवनंतपुरम सेंट्रल", "name:ta": "திருவனந்தபுரம் சென்ட்ரல்", "osm_id": 10255800219, "osm_type": "nodes" }, "geometry": { "type": "Point", "coordinates": [ 76.9526408, 8.4870167 ] } },
{ "type": "Feature", "properties": { "name": "Nandyal", "name:en": null, "railway": "station", "ele": null, "operator:type": null, "layer": null, "addr:full": null, "addr:city": null, "source": null, "name:hi": "नंद्याल जंक्शन", "name:ta": null, "osm_id": 732205732, "osm_type": "nodes" }, "geometry": { "type": "Point", "coordinates": [ 78.4704598, 15.4692214 ] } },
{ "type": "Feature", "properties": { "name": "Vanchi Maniyachchi Junction", "name:en": null, "railway": "station", "ele": null, "operator:type": null, "layer": null, "addr:full": null, "addr:city": null, "source": null, "name:hi": "वान्ची मणियाच्चि जंक्शन", "name:ta": "வாஞ்சி மணியாச்சி சந்திப்பு", "osm_id": 5349727248, "osm_type": "nodes" }, "geometry": { "type": "Point", "coordinates": [ 77.891377, 8.881039 ] } },
{ "type": "Feature", "properties": { "name": "Milavittan", "name:en": null, "railway": "station", "ele": null, "operator:type": null, "layer": null, "addr:full": null, "addr:city": null, "source": null, "name:hi": "मीलविट्टान", "name:ta": "மீௗவிட்டான்", "osm_id": 5349727264, "osm_type": "nodes" }, "geometry": { "type": "Point", "coordinates": [ 78.0877263, 8.811644 ] } },
{ "type": "Feature", "properties": { "name": "Kikakui Road", "name:en": null, "railway": "station", "ele": null, "operator:type": null, "layer": null, "addr:full": null, "addr:city": null, "source": null, "name:hi": null, "name:ta": null, "osm_id": 5078667809, "osm_type": "nodes" }, "geometry": { "type": "Point", "coordinates": [ 73.4926457, 21.129503 ] } },
{ "type": "Feature", "properties": { "name": "Valliyur", "name:en": null, "railway": "station", "ele": null, "operator:type": null, "layer": null, "addr:full": null, "addr:city": null, "source": null, "name:hi": null, "name:ta": "வள்ளியூர்", "osm_id": 4543308096, "osm_type": "nodes" }, "geometry": { "type": "Point", "coordinates": [ 77.6142866, 8.3768343 ] } },
{ "type": "Feature", "properties": { "name": "Janpath", "name:en": "Janpath", "railway": "station", "ele": null, "operator:type": null, "layer": null, "addr:full": null, "addr:city": null, "source": null, "name:hi": "जनपथ", "name:ta": null, "osm_id": 9584236507, "osm_type": "nodes" }, "geometry": { "type": "Point", "coordinates": [ 77.2192587, 28.6240485 ] } },
{ "type": "Feature", "properties": { "name": "Kharwa Chanda", "name:en": null, "railway": "station", "ele": null, "operator:type": null, "layer": null, "addr:full": null, "addr:city": null, "source": null, "name:hi": null, "name:ta": null, "osm_id": 8245773251, "osm_type": "nodes" }, "geometry": { "type": "Point", "coordinates": [ 73.8116709, 24.417088 ] } },
{ "type": "Feature", "properties": { "name": "Jolarpettai Junction", "name:en": null, "railway": "station", "ele": null, "operator:type": null, "layer": null, "addr:full": null, "addr:city": null, "source": null, "name:hi": "जोलारपेट्टै जंक्शन", "name:ta": "ஜோலார்பேட்டை சந்திப்பு", "osm_id": 5311732452, "osm_type": "nodes" }, "geometry": { "type": "Point", "coordinates": [ 78.5783902, 12.5639905 ] } },
{ "type": "Feature", "properties": { "name": "Gubbi", "name:en": null, "railway": "station", "ele": null, "operator:type": null, "layer": null, "addr:full": null, "addr:city": null, "source": null, "name:hi": null, "name:ta": null, "osm_id": 794150286, "osm_type": "nodes" }, "geometry": { "type": "Point", "coordinates": [ 76.9387568, 13.3214083 ] } },
{ "type": "Feature", "properties": { "name": "Tumakuru", "name:en": null, "railway": "station", "ele": null, "operator:type": null, "layer": null, "addr:full": null, "addr:city": null, "source": null, "name:hi": "तुमकुर", "name:ta": "தும்கூர்", "osm_id": 853131485, "osm_type": "nodes" }, "geometry": { "type": "Point", "coordinates": [ 77.101958, 13.333899 ] } },
{ "type": "Feature", "properties": { "name": "Magudanchavadi", "name:en": null, "railway": "station", "ele": null, "operator:type": null, "layer": null, "addr:full": null, "addr:city": null, "source": null, "name:hi": null, "name:ta": null, "osm_id": 1114856418, "osm_type": "nodes" }, "geometry": { "type": "Point", "coordinates": [ 77.9877116, 11.5514013 ] } },
{ "type": "Feature", "properties": { "name": "Banasandra", "name:en": null, "railway": "station", "ele": null, "operator:type": null, "layer": null, "addr:full": null, "addr:city": null, "source": null, "name:hi": null, "name:ta": null, "osm_id": 1801510237, "osm_type": "nodes" }, "geometry": { "type": "Point", "coordinates": [ 76.6606063, 13.2655514 ] } },
{ "type": "Feature", "properties": { "name": "Nittur", "name:en": null, "railway": "station", "ele": null, "operator:type": null, "layer": null, "addr:full": null, "addr:city": null, "source": null, "name:hi": null, "name:ta": null, "osm_id": 1818651789, "osm_type": "nodes" }, "geometry": { "type": "Point", "coordinates": [ 76.8559516, 13.3026477 ] } },
{ "type": "Feature", "properties": { "name": "Maynapur", "name:en": null, "railway": "station", "ele": null, "operator:type": null, "layer": null, "addr:full": null, "addr:city": null, "source": null, "name:hi": null, "name:ta": null, "osm_id": 2163894917, "osm_type": "nodes" }, "geometry": { "type": "Point", "coordinates": [ 87.498611, 23.0037127 ] } },
{ "type": "Feature", "properties": { "name": "Hirehalli", "name:en": null, "railway": "station", "ele": null, "operator:type": null, "layer": null, "addr:full": null, "addr:city": null, "source": null, "name:hi": null, "name:ta": null, "osm_id": 389475413, "osm_type": "nodes" }, "geometry": { "type": "Point", "coordinates": [ 77.1887827, 13.2806649 ] } },
{ "type": "Feature", "properties": { "name": "Totiyapalayam", "name:en": null, "railway": "station", "ele": null, "operator:type": null, "layer": null, "addr:full": null, "addr:city": null, "source": null, "name:hi": null, "name:ta": "தொட்டிப்பாளயம்", "osm_id": 1114856467, "osm_type": "nodes" }, "geometry": { "type": "Point", "coordinates": [ 77.6811652, 11.2919975 ] } },
{ "type": "Feature", "properties": { "name": "Aralaguppe", "name:en": null, "railway": "station", "ele": null, "operator:type": null, "layer": null, "addr:full": null, "addr:city": null, "source": null, "name:hi": null, "name:ta": null, "osm_id": 2266574834, "osm_type": "nodes" }, "geometry": { "type": "Point", "coordinates": [ 76.6134466, 13.2532244 ] } },
{ "type": "Feature", "properties": { "name": "Kattur", "name:en": null, "railway": "station", "ele": null, "operator:type": null, "layer": null, "addr:full": null, "addr:city": null, "source": null, "name:hi": null, "name:ta": null, "osm_id": 2634373103, "osm_type": "nodes" }, "geometry": { "type": "Point", "coordinates": [ 78.8555355, 10.8961006 ] } },
{ "type": "Feature", "properties": { "name": "Mallur", "name:en": null, "railway": "station", "ele": null, "operator:type": null, "layer": null, "addr:full": null, "addr:city": null, "source": null, "name:hi": null, "name:ta": null, "osm_id": 6022434015, "osm_type": "nodes" }, "geometry": { "type": "Point", "coordinates": [ 78.1348392, 11.5541222 ] } },
{ "type": "Feature", "properties": { "name": "Pullampadi", "name:en": null, "railway": "station", "ele": null, "operator:type": null, "layer": null, "addr:full": null, "addr:city": null, "source": null, "name:hi": null, "name:ta": null, "osm_id": 1926969492, "osm_type": "nodes" }, "geometry": { "type": "Point", "coordinates": [ 78.9171105, 10.9396803 ] } },
{ "type": "Feature", "properties": { "name": "Lamana", "name:en": null, "railway": "station", "ele": null, "operator:type": null, "layer": null, "addr:full": null, "addr:city": null, "source": null, "name:hi": null, "name:ta": null, "osm_id": 2188155690, "osm_type": "nodes" }, "geometry": { "type": "Point", "coordinates": [ 74.4670059, 26.2465973 ] } },
{ "type": "Feature", "properties": { "name": "Guler", "name:en": null, "railway": "station", "ele": null, "operator:type": null, "layer": null, "addr:full": null, "addr:city": null, "source": null, "name:hi": "गुलेर", "name:ta": null, "osm_id": 2357205851, "osm_type": "nodes" }, "geometry": { "type": "Point", "coordinates": [ 76.151316, 32.0047724 ] } },
{ "type": "Feature", "properties": { "name": "Vishnupuram", "name:en": null, "railway": "station", "ele": null, "operator:type": null, "layer": null, "addr:full": null, "addr:city": null, "source": null, "name:hi": null, "name:ta": null, "osm_id": 2962456918, "osm_type": "nodes" }, "geometry": { "type": "Point", "coordinates": [ 79.6372927, 16.7097597 ] } },
{ "type": "Feature", "properties": { "name": "Titte", "name:en": null, "railway": "station", "ele": null, "operator:type": null, "layer": null, "addr:full": null, "addr:city": null, "source": null, "name:hi": null, "name:ta": null, "osm_id": 5300821212, "osm_type": "nodes" }, "geometry": { "type": "Point", "coordinates": [ 79.1817582, 10.8375519 ] } },
{ "type": "Feature", "properties": { "name": "Kondrapol", "name:en": null, "railway": "station", "ele": null, "operator:type": null, "layer": null, "addr:full": null, "addr:city": null, "source": null, "name:hi": null, "name:ta": null, "osm_id": 2962456917, "osm_type": "nodes" }, "geometry": { "type": "Point", "coordinates": [ 79.6010391, 16.7853096 ] } },
{ "type": "Feature", "properties": { "name": "Chityala", "name:en": null, "railway": "station", "ele": null, "operator:type": null, "layer": null, "addr:full": null, "addr:city": null, "source": null, "name:hi": null, "name:ta": null, "osm_id": 3801421097, "osm_type": "nodes" }, "geometry": { "type": "Point", "coordinates": [ 79.1358078, 17.2220875 ] } },
{ "type": "Feature", "properties": { "name": "Vellore Cantonment", "name:en": null, "railway": "station", "ele": null, "operator:type": null, "layer": null, "addr:full": null, "addr:city": null, "source": null, "name:hi": "वेलूर छावनी", "name:ta": "வேலூர் கண்டோன்மெண்ட்", "osm_id": 5301740207, "osm_type": "nodes" }, "geometry": { "type": "Point", "coordinates": [ 79.1278469, 12.910651 ] } },
{ "type": "Feature", "properties": { "name": "Ramanathapuram", "name:en": null, "railway": "station", "ele": null, "operator:type": null, "layer": null, "addr:full": null, "addr:city": null, "source": null, "name:hi": "रामनाथपुरम", "name:ta": "இராமநாதபுரம்", "osm_id": 5305955338, "osm_type": "nodes" }, "geometry": { "type": "Point", "coordinates": [ 78.8375276, 9.3588632 ] } },
{ "type": "Feature", "properties": { "name": "Srivaikuntam", "name:en": null, "railway": "station", "ele": null, "operator:type": null, "layer": null, "addr:full": null, "addr:city": null, "source": null, "name:hi": null, "name:ta": "ஸ்ரீவைகுண்டம்", "osm_id": 5351690553, "osm_type": "nodes" }, "geometry": { "type": "Point", "coordinates": [ 77.9058407, 8.6227368 ] } },
{ "type": "Feature", "properties": { "name": "Tandur", "name:en": null, "railway": "station", "ele": null, "operator:type": null, "layer": null, "addr:full": null, "addr:city": null, "source": null, "name:hi": null, "name:ta": null, "osm_id": 702181539, "osm_type": "nodes" }, "geometry": { "type": "Point", "coordinates": [ 77.5841263, 17.2509364 ] } },
{ "type": "Feature", "properties": { "name": "Bindki Road", "name:en": null, "railway": "station", "ele": null, "operator:type": null, "layer": null, "addr:full": null, "addr:city": null, "source": null, "name:hi": null, "name:ta": null, "osm_id": 1179150266, "osm_type": "nodes" }, "geometry": { "type": "Point", "coordinates": [ 80.5807667, 26.1165351 ] } },
{ "type": "Feature", "properties": { "name": "Dhubri", "name:en": "Dhubri", "railway": "station", "ele": null, "operator:type": null, "layer": null, "addr:full": null, "addr:city": null, "source": null, "name:hi": "धुबड़ी", "name:ta": null, "osm_id": 7099895549, "osm_type": "nodes" }, "geometry": { "type": "Point", "coordinates": [ 89.9779442, 26.0228197 ] } },
{ "type": "Feature", "properties": { "name": "Nidamangalam Junction", "name:en": null, "railway": "station", "ele": null, "operator:type": null, "layer": null, "addr:full": null, "addr:city": null, "source": null, "name:hi": "नीडामगलम", "name:ta": "நீடாமங்கலம்", "osm_id": 5303104583, "osm_type": "nodes" }, "geometry": { "type": "Point", "coordinates": [ 79.4138444, 10.7737675 ] } },
{ "type": "Feature", "properties": { "name": "Gangatikuri", "name:en": null, "railway": "station", "ele": null, "operator:type": null, "layer": null, "addr:full": null, "addr:city": null, "source": null, "name:hi": null, "name:ta": null, "osm_id": 2163895210, "osm_type": "nodes" }, "geometry": { "type": "Point", "coordinates": [ 88.0878908, 23.7184197 ] } },
{ "type": "Feature", "properties": { "name": "Osmanabad", "name:en": null, "railway": "station", "ele": null, "operator:type": null, "layer": null, "addr:full": null, "addr:city": null, "source": null, "name:hi": null, "name:ta": null, "osm_id": 2062209006, "osm_type": "nodes" }, "geometry": { "type": "Point", "coordinates": [ 76.0229299, 18.2478435 ] } },
{ "type": "Feature", "properties": { "name": "Hatia", "name:en": "Hatia", "railway": "station", "ele": "650", "operator:type": null, "layer": null, "addr:full": null, "addr:city": null, "source": null, "name:hi": "हटिया", "name:ta": null, "osm_id": 9231992300, "osm_type": "nodes" }, "geometry": { "type": "Point", "coordinates": [ 85.3084951, 23.3094048 ] } },
{ "type": "Feature", "properties": { "name": "Purulia Junction", "name:en": null, "railway": "station", "ele": null, "operator:type": null, "layer": null, "addr:full": null, "addr:city": null, "source": null, "name:hi": null, "name:ta": null, "osm_id": 1317706987, "osm_type": "nodes" }, "geometry": { "type": "Point", "coordinates": [ 86.3779801, 23.325579 ] } },
{ "type": "Feature", "properties": { "name": "Subhash Nagar", "name:en": null, "railway": "station", "ele": null, "operator:type": null, "layer": null, "addr:full": null, "addr:city": null, "source": null, "name:hi": "सुभाष नगर", "name:ta": null, "osm_id": 11371112355, "osm_type": "nodes" }, "geometry": { "type": "Point", "coordinates": [ 79.0420532, 21.1233162 ] } },
{ "type": "Feature", "properties": { "name": "LAD College", "name:en": null, "railway": "station", "ele": null, "operator:type": null, "layer": null, "addr:full": null, "addr:city": null, "source": null, "name:hi": null, "name:ta": null, "osm_id": 11371112353, "osm_type": "nodes" }, "geometry": { "type": "Point", "coordinates": [ 79.054798, 21.1329162 ] } },
{ "type": "Feature", "properties": { "name": "Ambazari Lake", "name:en": null, "railway": "station", "ele": null, "operator:type": null, "layer": null, "addr:full": null, "addr:city": null, "source": null, "name:hi": null, "name:ta": null, "osm_id": 11371112354, "osm_type": "nodes" }, "geometry": { "type": "Point", "coordinates": [ 79.0457448, 21.1286919 ] } },
{ "type": "Feature", "properties": { "name": "Shankar Nagar Square", "name:en": null, "railway": "station", "ele": null, "operator:type": null, "layer": null, "addr:full": null, "addr:city": null, "source": null, "name:hi": null, "name:ta": null, "osm_id": 11371112352, "osm_type": "nodes" }, "geometry": { "type": "Point", "coordinates": [ 79.0616442, 21.1362125 ] } },
{ "type": "Feature", "properties": { "name": "Ponpadi", "name:en": null, "railway": "station", "ele": null, "operator:type": null, "layer": null, "addr:full": null, "addr:city": null, "source": null, "name:hi": null, "name:ta": null, "osm_id": 5276343417, "osm_type": "nodes" }, "geometry": { "type": "Point", "coordinates": [ 79.5889343, 13.239337 ] } },
{ "type": "Feature", "properties": { "name": "Marudalam", "name:en": null, "railway": "station", "ele": null, "operator:type": null, "layer": null, "addr:full": null, "addr:city": null, "source": null, "name:hi": null, "name:ta": null, "osm_id": 5310778047, "osm_type": "nodes" }, "geometry": { "type": "Point", "coordinates": [ 79.3967347, 12.9966478 ] } },
{ "type": "Feature", "properties": { "name": "Puttur", "name:en": null, "railway": "station", "ele": null, "operator:type": null, "layer": null, "addr:full": null, "addr:city": null, "source": null, "name:hi": null, "name:ta": "புத்தூர்", "osm_id": 5311732456, "osm_type": "nodes" }, "geometry": { "type": "Point", "coordinates": [ 79.5527833, 13.4398525 ] } },
{ "type": "Feature", "properties": { "name": "Chalala", "name:en": null, "railway": "station", "ele": null, "operator:type": null, "layer": null, "addr:full": null, "addr:city": null, "source": null, "name:hi": null, "name:ta": null, "osm_id": 1065469876, "osm_type": "nodes" }, "geometry": { "type": "Point", "coordinates": [ 71.1617694, 21.415134 ] } },
{ "type": "Feature", "properties": { "name": "Unchaulia", "name:en": null, "railway": "station", "ele": null, "operator:type": null, "layer": null, "addr:full": null, "addr:city": null, "source": null, "name:hi": null, "name:ta": null, "osm_id": 8999686380, "osm_type": "nodes" }, "geometry": { "type": "Point", "coordinates": [ 80.0683067, 27.8102829 ] } },
{ "type": "Feature", "properties": { "name": "Mathur", "name:en": null, "railway": "station", "ele": null, "operator:type": null, "layer": null, "addr:full": null, "addr:city": null, "source": null, "name:hi": null, "name:ta": null, "osm_id": 5303165678, "osm_type": "nodes" }, "geometry": { "type": "Point", "coordinates": [ 79.2061625, 11.3185214 ] } },
{ "type": "Feature", "properties": { "name": "Kallagam", "name:en": null, "railway": "station", "ele": null, "operator:type": null, "layer": null, "addr:full": null, "addr:city": null, "source": null, "name:hi": null, "name:ta": null, "osm_id": 5303839986, "osm_type": "nodes" }, "geometry": { "type": "Point", "coordinates": [ 79.005033, 11.0251802 ] } },
{ "type": "Feature", "properties": { "name": "Melpattambakkam", "name:en": null, "railway": "station", "ele": null, "operator:type": null, "layer": null, "addr:full": null, "addr:city": null, "source": null, "name:hi": null, "name:ta": null, "osm_id": 5300620016, "osm_type": "nodes" }, "geometry": { "type": "Point", "coordinates": [ 79.6243363, 11.785398 ] } },
{ "type": "Feature", "properties": { "name": "Nellikuppam", "name:en": null, "railway": "station", "ele": null, "operator:type": null, "layer": null, "addr:full": null, "addr:city": null, "source": null, "name:hi": null, "name:ta": null, "osm_id": 5300620018, "osm_type": "nodes" }, "geometry": { "type": "Point", "coordinates": [ 79.6699222, 11.7737083 ] } },
{ "type": "Feature", "properties": { "name": "Veeravasaram", "name:en": null, "railway": "station", "ele": null, "operator:type": null, "layer": null, "addr:full": null, "addr:city": null, "source": null, "name:hi": null, "name:ta": null, "osm_id": 2965547537, "osm_type": "nodes" }, "geometry": { "type": "Point", "coordinates": [ 81.6327093, 16.5421468 ] } },
{ "type": "Feature", "properties": { "name": "Mandavalli", "name:en": null, "railway": "station", "ele": null, "operator:type": null, "layer": null, "addr:full": null, "addr:city": null, "source": null, "name:hi": null, "name:ta": null, "osm_id": 2965578395, "osm_type": "nodes" }, "geometry": { "type": "Point", "coordinates": [ 81.161107, 16.518662 ] } },
{ "type": "Feature", "properties": { "name": "Surareddipalem", "name:en": null, "railway": "station", "ele": null, "operator:type": null, "layer": null, "addr:full": null, "addr:city": null, "source": null, "name:hi": null, "name:ta": null, "osm_id": 2526169012, "osm_type": "nodes" }, "geometry": { "type": "Point", "coordinates": [ 80.0460191, 15.4081379 ] } },
{ "type": "Feature", "properties": { "name": "Tanguturu", "name:en": null, "railway": "station", "ele": null, "operator:type": null, "layer": null, "addr:full": null, "addr:city": null, "source": null, "name:hi": null, "name:ta": null, "osm_id": 708875370, "osm_type": "nodes" }, "geometry": { "type": "Point", "coordinates": [ 80.0335293, 15.3377457 ] } },
{ "type": "Feature", "properties": { "name": "Chovvara", "name:en": null, "railway": "station", "ele": null, "operator:type": null, "layer": null, "addr:full": null, "addr:city": null, "source": null, "name:hi": null, "name:ta": null, "osm_id": 4825023202, "osm_type": "nodes" }, "geometry": { "type": "Point", "coordinates": [ 76.3722718, 10.1329777 ] } },
{ "type": "Feature", "properties": { "name": "Bonakalu", "name:en": null, "railway": "station", "ele": null, "operator:type": null, "layer": null, "addr:full": null, "addr:city": null, "source": null, "name:hi": null, "name:ta": null, "osm_id": 781951108, "osm_type": "nodes" }, "geometry": { "type": "Point", "coordinates": [ 80.263411, 17.0293599 ] } },
{ "type": "Feature", "properties": { "name": "Alapadu", "name:en": null, "railway": "station", "ele": null, "operator:type": null, "layer": null, "addr:full": null, "addr:city": null, "source": null, "name:hi": null, "name:ta": null, "osm_id": 6167725023, "osm_type": "nodes" }, "geometry": { "type": "Point", "coordinates": [ 81.3218291, 16.5781517 ] } },
{ "type": "Feature", "properties": { "name": "Tada", "name:en": null, "railway": "station", "ele": null, "operator:type": null, "layer": null, "addr:full": null, "addr:city": null, "source": null, "name:hi": null, "name:ta": null, "osm_id": 5311732628, "osm_type": "nodes" }, "geometry": { "type": "Point", "coordinates": [ 80.036079, 13.5885437 ] } },
{ "type": "Feature", "properties": { "name": "Tettu", "name:en": null, "railway": "station", "ele": null, "operator:type": null, "layer": null, "addr:full": null, "addr:city": null, "source": null, "name:hi": null, "name:ta": null, "osm_id": 708875652, "osm_type": "nodes" }, "geometry": { "type": "Point", "coordinates": [ 80.0055942, 15.0431202 ] } },
{ "type": "Feature", "properties": { "name": "Perunguzhi", "name:en": null, "railway": "station", "ele": null, "operator:type": null, "layer": null, "addr:full": null, "addr:city": null, "source": null, "name:hi": null, "name:ta": null, "osm_id": 5764348902, "osm_type": "nodes" }, "geometry": { "type": "Point", "coordinates": [ 76.8081619, 8.6317315 ] } },
{ "type": "Feature", "properties": { "name": "Veppampattu", "name:en": null, "railway": "station", "ele": null, "operator:type": null, "layer": null, "addr:full": null, "addr:city": null, "source": null, "name:hi": null, "name:ta": null, "osm_id": 5310778036, "osm_type": "nodes" }, "geometry": { "type": "Point", "coordinates": [ 79.9984223, 13.1235994 ] } },
{ "type": "Feature", "properties": { "name": "Tiruninravur", "name:en": null, "railway": "station", "ele": null, "operator:type": null, "layer": null, "addr:full": null, "addr:city": null, "source": null, "name:hi": null, "name:ta": null, "osm_id": 5286998286, "osm_type": "nodes" }, "geometry": { "type": "Point", "coordinates": [ 80.0297436, 13.123994 ] } },
{ "type": "Feature", "properties": { "name": "Sevvapet Road", "name:en": null, "railway": "station", "ele": null, "operator:type": null, "layer": null, "addr:full": null, "addr:city": null, "source": null, "name:hi": null, "name:ta": null, "osm_id": 5310778038, "osm_type": "nodes" }, "geometry": { "type": "Point", "coordinates": [ 79.9660618, 13.1252677 ] } },
{ "type": "Feature", "properties": { "name": "Cochin Harbour Terminus", "name:en": null, "railway": "station", "ele": null, "operator:type": null, "layer": null, "addr:full": null, "addr:city": null, "source": null, "name:hi": null, "name:ta": null, "osm_id": 732425300, "osm_type": "nodes" }, "geometry": { "type": "Point", "coordinates": [ 76.2676188, 9.9602949 ] } },
{ "type": "Feature", "properties": { "name": "Indira Nagar", "name:en": null, "railway": "station", "ele": null, "operator:type": null, "layer": null, "addr:full": null, "addr:city": null, "source": null, "name:hi": null, "name:ta": "இந்திரா நகர்", "osm_id": 5311755238, "osm_type": "nodes" }, "geometry": { "type": "Point", "coordinates": [ 80.249716, 12.9960623 ] } },
{ "type": "Feature", "properties": { "name": "Kumaranalloor", "name:en": null, "railway": "station", "ele": null, "operator:type": null, "layer": null, "addr:full": null, "addr:city": null, "source": null, "name:hi": null, "name:ta": null, "osm_id": 5253929163, "osm_type": "nodes" }, "geometry": { "type": "Point", "coordinates": [ 76.5321639, 9.6170199 ] } },
{ "type": "Feature", "properties": { "name": "Munumaka", "name:en": null, "railway": "station", "ele": null, "operator:type": null, "layer": null, "addr:full": null, "addr:city": null, "source": null, "name:hi": null, "name:ta": null, "osm_id": 2967452135, "osm_type": "nodes" }, "geometry": { "type": "Point", "coordinates": [ 79.9808181, 16.1898978 ] } },
{ "type": "Feature", "properties": { "name": "Tripunittura", "name:en": null, "railway": "station", "ele": null, "operator:type": null, "layer": null, "addr:full": null, "addr:city": null, "source": null, "name:hi": null, "name:ta": null, "osm_id": 1190898883, "osm_type": "nodes" }, "geometry": { "type": "Point", "coordinates": [ 76.3526309, 9.9497664 ] } },
{ "type": "Feature", "properties": { "name": "Mayyanad", "name:en": null, "railway": "station", "ele": null, "operator:type": null, "layer": null, "addr:full": null, "addr:city": null, "source": null, "name:hi": null, "name:ta": null, "osm_id": 334652322, "osm_type": "nodes" }, "geometry": { "type": "Point", "coordinates": [ 76.6476808, 8.8380291 ] } },
{ "type": "Feature", "properties": { "name": "Lalgola", "name:en": null, "railway": "station", "ele": null, "operator:type": null, "layer": null, "addr:full": null, "addr:city": null, "source": null, "name:hi": null, "name:ta": null, "osm_id": 7630431338, "osm_type": "nodes" }, "geometry": { "type": "Point", "coordinates": [ 88.2580206, 24.421361 ] } },
{ "type": "Feature", "properties": { "name": "Tirunettur", "name:en": null, "railway": "station", "ele": null, "operator:type": null, "layer": null, "addr:full": null, "addr:city": null, "source": null, "name:hi": null, "name:ta": null, "osm_id": 4824919682, "osm_type": "nodes" }, "geometry": { "type": "Point", "coordinates": [ 76.3085098, 9.9342399 ] } },
{ "type": "Feature", "properties": { "name": "Cheppad Halt Station", "name:en": null, "railway": "station", "ele": null, "operator:type": null, "layer": null, "addr:full": null, "addr:city": null, "source": null, "name:hi": null, "name:ta": null, "osm_id": 1474316231, "osm_type": "nodes" }, "geometry": { "type": "Point", "coordinates": [ 76.4768113, 9.2330076 ] } },
{ "type": "Feature", "properties": { "name": "Ponmalai (Golden Rock)", "name:en": null, "railway": "station", "ele": null, "operator:type": null, "layer": null, "addr:full": null, "addr:city": null, "source": null, "name:hi": null, "name:ta": null, "osm_id": 5300868168, "osm_type": "nodes" }, "geometry": { "type": "Point", "coordinates": [ 78.7104342, 10.7915686 ] } },
{ "type": "Feature", "properties": { "name": "Manjattidal", "name:en": null, "railway": "station", "ele": null, "operator:type": null, "layer": null, "addr:full": null, "addr:city": null, "source": null, "name:hi": null, "name:ta": null, "osm_id": 5300868166, "osm_type": "nodes" }, "geometry": { "type": "Point", "coordinates": [ 78.7316938, 10.7926541 ] } },
{ "type": "Feature", "properties": { "name": "Kulithalai", "name:en": null, "railway": "station", "ele": null, "operator:type": null, "layer": null, "addr:full": null, "addr:city": null, "source": null, "name:hi": null, "name:ta": "குளித்தலை", "osm_id": 4112304449, "osm_type": "nodes" }, "geometry": { "type": "Point", "coordinates": [ 78.4210459, 10.9335519 ] } },
{ "type": "Feature", "properties": { "name": "Tiruchchuli", "name:en": null, "railway": "station", "ele": null, "operator:type": null, "layer": null, "addr:full": null, "addr:city": null, "source": null, "name:hi": null, "name:ta": null, "osm_id": 5306231354, "osm_type": "nodes" }, "geometry": { "type": "Point", "coordinates": [ 78.1984023, 9.5377389 ] } },
{ "type": "Feature", "properties": { "name": "Srirangam", "name:en": null, "railway": "station", "ele": null, "operator:type": null, "layer": null, "addr:full": null, "addr:city": null, "source": null, "name:hi": null, "name:ta": null, "osm_id": 5303840008, "osm_type": "nodes" }, "geometry": { "type": "Point", "coordinates": [ 78.6959617, 10.8577026 ] } },
{ "type": "Feature", "properties": { "name": "Sudiyur", "name:en": null, "railway": "station", "ele": null, "operator:type": null, "layer": null, "addr:full": null, "addr:city": null, "source": null, "name:hi": "सूडियूर", "name:ta": "சூடியூர்", "osm_id": 5324862243, "osm_type": "nodes" }, "geometry": { "type": "Point", "coordinates": [ 78.4859789, 9.600482 ] } },
{ "type": "Feature", "properties": { "name": "Lalgudi", "name:en": null, "railway": "station", "ele": null, "operator:type": null, "layer": null, "addr:full": null, "addr:city": null, "source": null, "name:hi": null, "name:ta": null, "osm_id": 5303840006, "osm_type": "nodes" }, "geometry": { "type": "Point", "coordinates": [ 78.8153244, 10.8754197 ] } },
{ "type": "Feature", "properties": { "name": "Samayanallur", "name:en": "Samayanallur", "railway": "station", "ele": null, "operator:type": null, "layer": null, "addr:full": null, "addr:city": null, "source": null, "name:hi": "समयनल्लुर", "name:ta": "சமயநல்லூர்", "osm_id": 5338159679, "osm_type": "nodes" }, "geometry": { "type": "Point", "coordinates": [ 78.0336061, 9.9820699 ] } },
{ "type": "Feature", "properties": { "name": "Tiruppuvanam", "name:en": null, "railway": "station", "ele": null, "operator:type": null, "layer": null, "addr:full": null, "addr:city": null, "source": null, "name:hi": null, "name:ta": null, "osm_id": 5353573491, "osm_type": "nodes" }, "geometry": { "type": "Point", "coordinates": [ 78.2594924, 9.8218179 ] } },
{ "type": "Feature", "properties": { "name": "Paramakkudi", "name:en": null, "railway": "station", "ele": null, "operator:type": null, "layer": null, "addr:full": null, "addr:city": null, "source": null, "name:hi": "परमक्कुडि", "name:ta": "பரமக்குடி", "osm_id": 5305909311, "osm_type": "nodes" }, "geometry": { "type": "Point", "coordinates": [ 78.5910826, 9.5394619 ] } },
{ "type": "Feature", "properties": { "name": "Arantangi", "name:en": null, "railway": "station", "ele": null, "operator:type": null, "layer": null, "addr:full": null, "addr:city": null, "source": null, "name:hi": null, "name:ta": "அறந்தாங்கி", "osm_id": 5303104522, "osm_type": "nodes" }, "geometry": { "type": "Point", "coordinates": [ 79.0033283, 10.1721042 ] } },
{ "type": "Feature", "properties": { "name": "Sivarakottai", "name:en": null, "railway": "station", "ele": null, "operator:type": null, "layer": null, "addr:full": null, "addr:city": null, "source": null, "name:hi": null, "name:ta": null, "osm_id": 5338756173, "osm_type": "nodes" }, "geometry": { "type": "Point", "coordinates": [ 77.9864872, 9.7398735 ] } },
{ "type": "Feature", "properties": { "name": "Pettaivaytalai", "name:en": null, "railway": "station", "ele": null, "operator:type": null, "layer": null, "addr:full": null, "addr:city": null, "source": null, "name:hi": null, "name:ta": null, "osm_id": 6026329110, "osm_type": "nodes" }, "geometry": { "type": "Point", "coordinates": [ 78.4935405, 10.8988575 ] } },
{ "type": "Feature", "properties": { "name": "Vaiyampatti", "name:en": null, "railway": "station", "ele": null, "operator:type": null, "layer": null, "addr:full": null, "addr:city": null, "source": null, "name:hi": null, "name:ta": null, "osm_id": 5315603268, "osm_type": "nodes" }, "geometry": { "type": "Point", "coordinates": [ 78.3085888, 10.5433805 ] } },
{ "type": "Feature", "properties": { "name": "Eriodu", "name:en": null, "railway": "station", "ele": null, "operator:type": null, "layer": null, "addr:full": null, "addr:city": null, "source": null, "name:hi": null, "name:ta": null, "osm_id": 6026468163, "osm_type": "nodes" }, "geometry": { "type": "Point", "coordinates": [ 78.0567549, 10.5157226 ] } },
{ "type": "Feature", "properties": { "name": "Ambalappuzha", "name:en": null, "railway": "station", "ele": null, "operator:type": null, "layer": null, "addr:full": null, "addr:city": null, "source": null, "name:hi": null, "name:ta": "அம்பலப்புழா", "osm_id": 2078446831, "osm_type": "nodes" }, "geometry": { "type": "Point", "coordinates": [ 76.3627219, 9.3862866 ] } },
{ "type": "Feature", "properties": { "name": "Chingavanam", "name:en": null, "railway": "station", "ele": null, "operator:type": null, "layer": null, "addr:full": null, "addr:city": null, "source": null, "name:hi": null, "name:ta": null, "osm_id": 5849846549, "osm_type": "nodes" }, "geometry": { "type": "Point", "coordinates": [ 76.5253789, 9.5292309 ] } },
{ "type": "Feature", "properties": { "name": "Pambakovil Shandy", "name:en": null, "railway": "station", "ele": null, "operator:type": null, "layer": null, "addr:full": null, "addr:city": null, "source": null, "name:hi": null, "name:ta": null, "osm_id": 5338934710, "osm_type": "nodes" }, "geometry": { "type": "Point", "coordinates": [ 77.4306436, 9.130512 ] } },
{ "type": "Feature", "properties": { "name": "Kanjiramattam", "name:en": null, "railway": "station", "ele": null, "operator:type": null, "layer": null, "addr:full": null, "addr:city": null, "source": null, "name:hi": null, "name:ta": null, "osm_id": 4825232030, "osm_type": "nodes" }, "geometry": { "type": "Point", "coordinates": [ 76.4123043, 9.8619389 ] } },
{ "type": "Feature", "properties": { "name": "Kottayam", "name:en": null, "railway": "station", "ele": null, "operator:type": null, "layer": null, "addr:full": null, "addr:city": null, "source": null, "name:hi": null, "name:ta": "கோட்டயம்", "osm_id": 1365686053, "osm_type": "nodes" }, "geometry": { "type": "Point", "coordinates": [ 76.5322834, 9.5944777 ] } },
{ "type": "Feature", "properties": { "name": "Vaikam Road", "name:en": null, "railway": "station", "ele": null, "operator:type": null, "layer": null, "addr:full": null, "addr:city": null, "source": null, "name:hi": null, "name:ta": null, "osm_id": 4825504648, "osm_type": "nodes" }, "geometry": { "type": "Point", "coordinates": [ 76.4744489, 9.7778824 ] } },
{ "type": "Feature", "properties": { "name": "Karunagapalli railway station", "name:en": null, "railway": "station", "ele": null, "operator:type": null, "layer": null, "addr:full": null, "addr:city": null, "source": null, "name:hi": null, "name:ta": null, "osm_id": 1890599665, "osm_type": "nodes" }, "geometry": { "type": "Point", "coordinates": [ 76.5446447, 9.0652253 ] } },
{ "type": "Feature", "properties": { "name": "Adirampattinam", "name:en": null, "railway": "station", "ele": null, "operator:type": null, "layer": null, "addr:full": null, "addr:city": null, "source": null, "name:hi": null, "name:ta": "அதிராம்பட்டினம்", "osm_id": 4261047361, "osm_type": "nodes" }, "geometry": { "type": "Point", "coordinates": [ 79.384877, 10.3319451 ] } },
{ "type": "Feature", "properties": { "name": "Uchippuli", "name:en": null, "railway": "station", "ele": null, "operator:type": null, "layer": null, "addr:full": null, "addr:city": null, "source": null, "name:hi": "उच्चिप्पुलि", "name:ta": "உச்சிப்புளி", "osm_id": 5305955340, "osm_type": "nodes" }, "geometry": { "type": "Point", "coordinates": [ 79.0124293, 9.308832 ] } },
{ "type": "Feature", "properties": { "name": "Pattukkottai", "name:en": null, "railway": "station", "ele": null, "operator:type": null, "layer": null, "addr:full": null, "addr:city": null, "source": null, "name:hi": null, "name:ta": "பட்டுக்கோட்டை", "osm_id": 5302919561, "osm_type": "nodes" }, "geometry": { "type": "Point", "coordinates": [ 79.3205603, 10.4162901 ] } },
{ "type": "Feature", "properties": { "name": "Narikkudi", "name:en": null, "railway": "station", "ele": null, "operator:type": null, "layer": null, "addr:full": null, "addr:city": null, "source": null, "name:hi": null, "name:ta": null, "osm_id": 5239465206, "osm_type": "nodes" }, "geometry": { "type": "Point", "coordinates": [ 78.2998824, 9.59257 ] } },
{ "type": "Feature", "properties": { "name": "Melakkonnakkulam", "name:en": null, "railway": "station", "ele": null, "operator:type": null, "layer": null, "addr:full": null, "addr:city": null, "source": null, "name:hi": "मेलक़ोन्नक्कुलम", "name:ta": "மேலகொன்னக்குளம்", "osm_id": 5305909298, "osm_type": "nodes" }, "geometry": { "type": "Point", "coordinates": [ 78.4663467, 9.7323367 ] } },
{ "type": "Feature", "properties": { "name": "Sattirakkudi", "name:en": null, "railway": "station", "ele": null, "operator:type": null, "layer": null, "addr:full": null, "addr:city": null, "source": null, "name:hi": "सत्तिरक्कुडि", "name:ta": "சத்திரக்குடி", "osm_id": 5305909313, "osm_type": "nodes" }, "geometry": { "type": "Point", "coordinates": [ 78.7053036, 9.4009728 ] } },
{ "type": "Feature", "properties": { "name": "Tiruverumbur", "name:en": null, "railway": "station", "ele": null, "operator:type": null, "layer": null, "addr:full": null, "addr:city": null, "source": null, "name:hi": null, "name:ta": "திருவெறும்பூர்", "osm_id": 5300868165, "osm_type": "nodes" }, "geometry": { "type": "Point", "coordinates": [ 78.7765678, 10.787533 ] } },
{ "type": "Feature", "properties": { "name": "Kuruppanthara", "name:en": null, "railway": "station", "ele": null, "operator:type": null, "layer": null, "addr:full": null, "addr:city": null, "source": null, "name:hi": null, "name:ta": null, "osm_id": 4825232032, "osm_type": "nodes" }, "geometry": { "type": "Point", "coordinates": [ 76.5104911, 9.7350762 ] } },
{ "type": "Feature", "properties": { "name": "Devakottai Road", "name:en": null, "railway": "station", "ele": null, "operator:type": null, "layer": null, "addr:full": null, "addr:city": null, "source": null, "name:hi": "देवकोट्टै रोड", "name:ta": "தேவகோட்டை ரோடு", "osm_id": 5305909275, "osm_type": "nodes" }, "geometry": { "type": "Point", "coordinates": [ 78.7622216, 10.0380356 ] } },
{ "type": "Feature", "properties": { "name": "Aiyanapuram", "name:en": null, "railway": "station", "ele": null, "operator:type": null, "layer": null, "addr:full": null, "addr:city": null, "source": null, "name:hi": null, "name:ta": null, "osm_id": 5300868159, "osm_type": "nodes" }, "geometry": { "type": "Point", "coordinates": [ 78.9388004, 10.7878656 ] } },
{ "type": "Feature", "properties": { "name": "Kadayanallur", "name:en": null, "railway": "station", "ele": null, "operator:type": null, "layer": null, "addr:full": null, "addr:city": null, "source": null, "name:hi": null, "name:ta": null, "osm_id": 353052107, "osm_type": "nodes" }, "geometry": { "type": "Point", "coordinates": [ 77.3629798, 9.0856852 ] } },
{ "type": "Feature", "properties": { "name": "Budalur", "name:en": null, "railway": "station", "ele": null, "operator:type": null, "layer": null, "addr:full": null, "addr:city": null, "source": null, "name:hi": null, "name:ta": null, "osm_id": 5300868131, "osm_type": "nodes" }, "geometry": { "type": "Point", "coordinates": [ 78.9810094, 10.7828722 ] } },
{ "type": "Feature", "properties": { "name": "Ammapet", "name:en": null, "railway": "station", "ele": null, "operator:type": null, "layer": null, "addr:full": null, "addr:city": null, "source": null, "name:hi": null, "name:ta": null, "osm_id": 5303104568, "osm_type": "nodes" }, "geometry": { "type": "Point", "coordinates": [ 79.324827, 10.7789605 ] } },
{ "type": "Feature", "properties": { "name": "Ayyampet", "name:en": null, "railway": "station", "ele": null, "operator:type": null, "layer": null, "addr:full": null, "addr:city": "Ayyampettai", "source": null, "name:hi": null, "name:ta": null, "osm_id": 5300821201, "osm_type": "nodes" }, "geometry": { "type": "Point", "coordinates": [ 79.2074454, 10.896807 ] } },
{ "type": "Feature", "properties": { "name": "Tondamanpatti", "name:en": null, "railway": "station", "ele": null, "operator:type": null, "layer": null, "addr:full": null, "addr:city": null, "source": null, "name:hi": null, "name:ta": null, "osm_id": 5300868161, "osm_type": "nodes" }, "geometry": { "type": "Point", "coordinates": [ 78.8225853, 10.7861163 ] } },
{ "type": "Feature", "properties": { "name": "Alakkudi", "name:en": null, "railway": "station", "ele": null, "operator:type": null, "layer": null, "addr:full": null, "addr:city": null, "source": null, "name:hi": null, "name:ta": null, "osm_id": 5300868130, "osm_type": "nodes" }, "geometry": { "type": "Point", "coordinates": [ 79.0528726, 10.7772662 ] } },
{ "type": "Feature", "properties": { "name": "Saliyamangalam", "name:en": null, "railway": "station", "ele": null, "operator:type": null, "layer": null, "addr:full": null, "addr:city": null, "source": null, "name:hi": null, "name:ta": "சாலியமங்கலம்", "osm_id": 5303104550, "osm_type": "nodes" }, "geometry": { "type": "Point", "coordinates": [ 79.275277, 10.7796359 ] } },
{ "type": "Feature", "properties": { "name": "Pasupatikovil", "name:en": null, "railway": "station", "ele": null, "operator:type": null, "layer": null, "addr:full": null, "addr:city": "Pasupathikovil", "source": null, "name:hi": null, "name:ta": null, "osm_id": 5232624554, "osm_type": "nodes" }, "geometry": { "type": "Point", "coordinates": [ 79.1911775, 10.8826518 ] } },
{ "type": "Feature", "properties": { "name": "Muttasaranallur", "name:en": null, "railway": "station", "ele": null, "operator:type": null, "layer": null, "addr:full": null, "addr:city": null, "source": null, "name:hi": null, "name:ta": null, "osm_id": 5585526150, "osm_type": "nodes" }, "geometry": { "type": "Point", "coordinates": [ 78.6484358, 10.866458 ] } },
{ "type": "Feature", "properties": { "name": "Lalapet", "name:en": null, "railway": "station", "ele": null, "operator:type": null, "layer": null, "addr:full": null, "addr:city": null, "source": null, "name:hi": null, "name:ta": null, "osm_id": 6025355809, "osm_type": "nodes" }, "geometry": { "type": "Point", "coordinates": [ 78.3397983, 10.9514935 ] } },
{ "type": "Feature", "properties": { "name": "Mannargudi", "name:en": null, "railway": "station", "ele": null, "operator:type": null, "layer": null, "addr:full": null, "addr:city": null, "source": null, "name:hi": "मन्नारगुडी", "name:ta": "மன்னார்குடி", "osm_id": 5303104596, "osm_type": "nodes" }, "geometry": { "type": "Point", "coordinates": [ 79.4553714, 10.675141 ] } },
{ "type": "Feature", "properties": { "name": "Kulathur", "name:en": null, "railway": "station", "ele": null, "operator:type": null, "layer": null, "addr:full": null, "addr:city": null, "source": null, "name:hi": null, "name:ta": null, "osm_id": 6026478555, "osm_type": "nodes" }, "geometry": { "type": "Point", "coordinates": [ 78.009917, 10.4348038 ] } },
{ "type": "Feature", "properties": { "name": "St fatak", "name:en": null, "railway": "station", "ele": null, "operator:type": null, "layer": null, "addr:full": null, "addr:city": null, "source": null, "name:hi": null, "name:ta": null, "osm_id": 11150049345, "osm_type": "nodes" }, "geometry": { "type": "Point", "coordinates": [ 70.5294603, 21.6622147 ] } },
{ "type": "Feature", "properties": { "name": "Lakhamanchi", "name:en": null, "railway": "station", "ele": null, "operator:type": null, "layer": null, "addr:full": null, "addr:city": null, "source": null, "name:hi": null, "name:ta": null, "osm_id": 5745062194, "osm_type": "nodes" }, "geometry": { "type": "Point", "coordinates": [ 71.1485686, 22.5717042 ] } },
{ "type": "Feature", "properties": { "name": "Daladi", "name:en": null, "railway": "station", "ele": null, "operator:type": null, "layer": null, "addr:full": null, "addr:city": null, "source": null, "name:hi": null, "name:ta": null, "osm_id": 5745062164, "osm_type": "nodes" }, "geometry": { "type": "Point", "coordinates": [ 71.0701421, 22.5852012 ] } },
{ "type": "Feature", "properties": { "name": "Tirunelveli Town", "name:en": null, "railway": "station", "ele": null, "operator:type": null, "layer": null, "addr:full": null, "addr:city": null, "source": null, "name:hi": null, "name:ta": null, "osm_id": 5351690319, "osm_type": "nodes" }, "geometry": { "type": "Point", "coordinates": [ 77.6868543, 8.7200862 ] } },
{ "type": "Feature", "properties": { "name": "Pettai", "name:en": null, "railway": "station", "ele": null, "operator:type": null, "layer": null, "addr:full": null, "addr:city": null, "source": null, "name:hi": null, "name:ta": null, "osm_id": 5351690322, "osm_type": "nodes" }, "geometry": { "type": "Point", "coordinates": [ 77.6537065, 8.7189347 ] } },
{ "type": "Feature", "properties": { "name": "Gangaikondan", "name:en": null, "railway": "station", "ele": null, "operator:type": null, "layer": null, "addr:full": null, "addr:city": null, "source": null, "name:hi": null, "name:ta": "கங்கைகொண்டான்", "osm_id": 5351186330, "osm_type": "nodes" }, "geometry": { "type": "Point", "coordinates": [ 77.7842547, 8.8291191 ] } },
{ "type": "Feature", "properties": { "name": "Pandiyapuram", "name:en": null, "railway": "station", "ele": null, "operator:type": null, "layer": null, "addr:full": null, "addr:city": null, "source": null, "name:hi": "पांडियपुरम", "name:ta": "பாண்டியபுரம்", "osm_id": 5349727249, "osm_type": "nodes" }, "geometry": { "type": "Point", "coordinates": [ 77.9390634, 8.862358 ] } },
{ "type": "Feature", "properties": { "name": "Tattapparai", "name:en": null, "railway": "station", "ele": null, "operator:type": null, "layer": null, "addr:full": null, "addr:city": null, "source": null, "name:hi": "तट्टप्पारै", "name:ta": "தட்டப்பாரை", "osm_id": 5349727251, "osm_type": "nodes" }, "geometry": { "type": "Point", "coordinates": [ 78.0231972, 8.827761 ] } },
{ "type": "Feature", "properties": { "name": "Pavurchutram", "name:en": null, "railway": "station", "ele": null, "operator:type": null, "layer": null, "addr:full": null, "addr:city": null, "source": null, "name:hi": null, "name:ta": null, "osm_id": 2085407352, "osm_type": "nodes" }, "geometry": { "type": "Point", "coordinates": [ 77.3759299, 8.9150913 ] } },
{ "type": "Feature", "properties": { "name": "Polireddipalem", "name:en": null, "railway": "station", "ele": null, "operator:type": null, "layer": null, "addr:full": null, "addr:city": null, "source": null, "name:hi": null, "name:ta": null, "osm_id": 5311732631, "osm_type": "nodes" }, "geometry": { "type": "Point", "coordinates": [ 79.9798322, 13.759228 ] } },
{ "type": "Feature", "properties": { "name": "Kalikiri", "name:en": null, "railway": "station", "ele": null, "operator:type": null, "layer": null, "addr:full": null, "addr:city": null, "source": null, "name:hi": null, "name:ta": null, "osm_id": 732235218, "osm_type": "nodes" }, "geometry": { "type": "Point", "coordinates": [ 78.8001909, 13.6438615 ] } },
{ "type": "Feature", "properties": { "name": "Chandragiri", "name:en": null, "railway": "station", "ele": null, "operator:type": null, "layer": null, "addr:full": null, "addr:city": null, "source": null, "name:hi": null, "name:ta": null, "osm_id": 1722994532, "osm_type": "nodes" }, "geometry": { "type": "Point", "coordinates": [ 79.3122779, 13.6117116 ] } },
{ "type": "Feature", "properties": { "name": "Ramapuram", "name:en": null, "railway": "station", "ele": null, "operator:type": null, "layer": null, "addr:full": null, "addr:city": null, "source": null, "name:hi": null, "name:ta": null, "osm_id": 2967150483, "osm_type": "nodes" }, "geometry": { "type": "Point", "coordinates": [ 79.1794325, 13.098106 ] } },
{ "type": "Feature", "properties": { "name": "Kurabalakota", "name:en": null, "railway": "station", "ele": null, "operator:type": null, "layer": null, "addr:full": null, "addr:city": null, "source": null, "name:hi": null, "name:ta": null, "osm_id": 2967129687, "osm_type": "nodes" }, "geometry": { "type": "Point", "coordinates": [ 78.4854262, 13.66719 ] } },
{ "type": "Feature", "properties": { "name": "Mungilipattu", "name:en": null, "railway": "station", "ele": null, "operator:type": null, "layer": null, "addr:full": null, "addr:city": null, "source": null, "name:hi": null, "name:ta": null, "osm_id": 2967126464, "osm_type": "nodes" }, "geometry": { "type": "Point", "coordinates": [ 79.2412453, 13.5563934 ] } },
{ "type": "Feature", "properties": { "name": "Anavardikhanpettai", "name:en": null, "railway": "station", "ele": null, "operator:type": null, "layer": null, "addr:full": null, "addr:city": null, "source": null, "name:hi": null, "name:ta": null, "osm_id": 5273584429, "osm_type": "nodes" }, "geometry": { "type": "Point", "coordinates": [ 79.567244, 13.050776 ] } },
{ "type": "Feature", "properties": { "name": "Dhanuvachapuram", "name:en": null, "railway": "station", "ele": null, "operator:type": null, "layer": null, "addr:full": null, "addr:city": null, "source": null, "name:hi": null, "name:ta": null, "osm_id": 979109081, "osm_type": "nodes" }, "geometry": { "type": "Point", "coordinates": [ 77.1258416, 8.3783066 ] } },
{ "type": "Feature", "properties": { "name": "Sri Kalahasti", "name:en": null, "railway": "station", "ele": null, "operator:type": null, "layer": null, "addr:full": null, "addr:city": null, "source": null, "name:hi": null, "name:ta": null, "osm_id": 2385357881, "osm_type": "nodes" }, "geometry": { "type": "Point", "coordinates": [ 79.6832591, 13.7458324 ] } },
{ "type": "Feature", "properties": { "name": "Tiruchendur", "name:en": null, "railway": "station", "ele": null, "operator:type": null, "layer": null, "addr:full": null, "addr:city": null, "source": null, "name:hi": null, "name:ta": "திருச்செந்தூர்", "osm_id": 706924007, "osm_type": "nodes" }, "geometry": { "type": "Point", "coordinates": [ 78.1173, 8.5024637 ] } },
{ "type": "Feature", "properties": { "name": "Kayalpattinam", "name:en": null, "railway": "station", "ele": null, "operator:type": null, "layer": null, "addr:full": null, "addr:city": null, "source": null, "name:hi": null, "name:ta": null, "osm_id": 5351826024, "osm_type": "nodes" }, "geometry": { "type": "Point", "coordinates": [ 78.1003644, 8.5677868 ] } },
{ "type": "Feature", "properties": { "name": "Nagari", "name:en": null, "railway": "station", "ele": null, "operator:type": null, "layer": null, "addr:full": null, "addr:city": null, "source": null, "name:hi": null, "name:ta": null, "osm_id": 5311732454, "osm_type": "nodes" }, "geometry": { "type": "Point", "coordinates": [ 79.5796063, 13.3069858 ] } },
{ "type": "Feature", "properties": { "name": "Arumuganeri", "name:en": null, "railway": "station", "ele": null, "operator:type": null, "layer": null, "addr:full": null, "addr:city": null, "source": null, "name:hi": null, "name:ta": null, "osm_id": 5351825019, "osm_type": "nodes" }, "geometry": { "type": "Point", "coordinates": [ 78.092, 8.5794484 ] } },
{ "type": "Feature", "properties": { "name": "Taduku", "name:en": null, "railway": "station", "ele": null, "operator:type": null, "layer": null, "addr:full": null, "addr:city": null, "source": null, "name:hi": null, "name:ta": null, "osm_id": 5311732457, "osm_type": "nodes" }, "geometry": { "type": "Point", "coordinates": [ 79.5303234, 13.4973608 ] } },
{ "type": "Feature", "properties": { "name": "Thathankulam", "name:en": null, "railway": "station", "ele": null, "operator:type": null, "layer": null, "addr:full": null, "addr:city": null, "source": null, "name:hi": null, "name:ta": null, "osm_id": 5351690542, "osm_type": "nodes" }, "geometry": { "type": "Point", "coordinates": [ 77.8411086, 8.6298819 ] } },
{ "type": "Feature", "properties": { "name": "Talaiyuthu", "name:en": null, "railway": "station", "ele": null, "operator:type": null, "layer": null, "addr:full": null, "addr:city": null, "source": null, "name:hi": null, "name:ta": "தாழையுத்து", "osm_id": 5351186334, "osm_type": "nodes" }, "geometry": { "type": "Point", "coordinates": [ 77.7302314, 8.7842548 ] } },
{ "type": "Feature", "properties": { "name": "Sengulam", "name:en": null, "railway": "station", "ele": null, "operator:type": null, "layer": null, "addr:full": null, "addr:city": null, "source": null, "name:hi": null, "name:ta": null, "osm_id": 6047894114, "osm_type": "nodes" }, "geometry": { "type": "Point", "coordinates": [ 77.6829557, 8.6067941 ] } },
{ "type": "Feature", "properties": { "name": "Melattur", "name:en": null, "railway": "station", "ele": null, "operator:type": null, "layer": null, "addr:full": null, "addr:city": "Melattur", "source": null, "name:hi": null, "name:ta": null, "osm_id": 6027883178, "osm_type": "nodes" }, "geometry": { "type": "Point", "coordinates": [ 76.2727511, 11.0652277 ] } },
{ "type": "Feature", "properties": { "name": "Hosur", "name:en": null, "railway": "station", "ele": null, "operator:type": null, "layer": null, "addr:full": null, "addr:city": null, "source": null, "name:hi": null, "name:ta": "ஓசூர்", "osm_id": 367460634, "osm_type": "nodes" }, "geometry": { "type": "Point", "coordinates": [ 77.8229481, 12.7183361 ] } },
{ "type": "Feature", "properties": { "name": "Kuttippuram", "name:en": null, "railway": "station", "ele": null, "operator:type": null, "layer": null, "addr:full": null, "addr:city": null, "source": null, "name:hi": null, "name:ta": null, "osm_id": 5996987921, "osm_type": "nodes" }, "geometry": { "type": "Point", "coordinates": [ 76.0336891, 10.845624 ] } },
{ "type": "Feature", "properties": { "name": "Nanguneri", "name:en": null, "railway": "station", "ele": null, "operator:type": null, "layer": null, "addr:full": null, "addr:city": null, "source": null, "name:hi": null, "name:ta": "நாங்குநேரி", "osm_id": 353002619, "osm_type": "nodes" }, "geometry": { "type": "Point", "coordinates": [ 77.6632221, 8.4898391 ] } },
{ "type": "Feature", "properties": { "name": "Pattambi", "name:en": null, "railway": "station", "ele": null, "operator:type": null, "layer": null, "addr:full": null, "addr:city": null, "source": null, "name:hi": null, "name:ta": null, "osm_id": 5996323161, "osm_type": "nodes" }, "geometry": { "type": "Point", "coordinates": [ 76.1809281, 10.8022383 ] } },
{ "type": "Feature", "properties": { "name": "Manigram", "name:en": null, "railway": "station", "ele": null, "operator:type": null, "layer": null, "addr:full": null, "addr:city": null, "source": null, "name:hi": null, "name:ta": null, "osm_id": 1175313559, "osm_type": "nodes" }, "geometry": { "type": "Point", "coordinates": [ 88.1080981, 24.3431422 ] } },
{ "type": "Feature", "properties": { "name": "Kaniyapuram", "name:en": null, "railway": "station", "ele": null, "operator:type": null, "layer": null, "addr:full": null, "addr:city": null, "source": null, "name:hi": null, "name:ta": null, "osm_id": 295423775, "osm_type": "nodes" }, "geometry": { "type": "Point", "coordinates": [ 76.854403, 8.5874032 ] } },
{ "type": "Feature", "properties": { "name": "Hindu College", "name:en": null, "railway": "station", "ele": null, "operator:type": null, "layer": null, "addr:full": null, "addr:city": null, "source": null, "name:hi": null, "name:ta": "இந்துக் கல்லூரி", "osm_id": 5274201067, "osm_type": "nodes" }, "geometry": { "type": "Point", "coordinates": [ 80.0744298, 13.1184826 ] } },
{ "type": "Feature", "properties": { "name": "Amalanagar", "name:en": null, "railway": "station", "ele": null, "operator:type": null, "layer": null, "addr:full": null, "addr:city": null, "source": null, "name:hi": null, "name:ta": null, "osm_id": 10252989480, "osm_type": "nodes" }, "geometry": { "type": "Point", "coordinates": [ 76.1721993, 10.5620859 ] } },
{ "type": "Feature", "properties": { "name": "Adihalli", "name:en": null, "railway": "station", "ele": null, "operator:type": null, "layer": null, "addr:full": null, "addr:city": null, "source": null, "name:hi": null, "name:ta": null, "osm_id": 4838807292, "osm_type": "nodes" }, "geometry": { "type": "Point", "coordinates": [ 76.3259959, 13.2961129 ] } },
{ "type": "Feature", "properties": { "name": "Arakkonam Junction", "name:en": null, "railway": "station", "ele": null, "operator:type": null, "layer": null, "addr:full": null, "addr:city": null, "source": null, "name:hi": null, "name:ta": "அரக்கோணம் சந்திப்பு", "osm_id": 5273664184, "osm_type": "nodes" }, "geometry": { "type": "Point", "coordinates": [ 79.6685253, 13.0823386 ] } },
{ "type": "Feature", "properties": { "name": "Kurumbur", "name:en": null, "railway": "station", "ele": null, "operator:type": null, "layer": null, "addr:full": null, "addr:city": null, "source": null, "name:hi": null, "name:ta": null, "osm_id": 5351824969, "osm_type": "nodes" }, "geometry": { "type": "Point", "coordinates": [ 78.0394315, 8.5856868 ] } },
{ "type": "Feature", "properties": { "name": "Nazareth", "name:en": null, "railway": "station", "ele": null, "operator:type": null, "layer": null, "addr:full": null, "addr:city": null, "source": null, "name:hi": null, "name:ta": null, "osm_id": 5351824938, "osm_type": "nodes" }, "geometry": { "type": "Point", "coordinates": [ 77.9758266, 8.5643969 ] } },
{ "type": "Feature", "properties": { "name": "Alwar Tirunagari", "name:en": null, "railway": "station", "ele": null, "operator:type": null, "layer": null, "addr:full": null, "addr:city": null, "source": null, "name:hi": null, "name:ta": null, "osm_id": 5351824965, "osm_type": "nodes" }, "geometry": { "type": "Point", "coordinates": [ 77.9427499, 8.6015776 ] } },
{ "type": "Feature", "properties": { "name": "Tiruttani", "name:en": null, "railway": "station", "ele": null, "operator:type": null, "layer": null, "addr:full": null, "addr:city": null, "source": null, "name:hi": null, "name:ta": null, "osm_id": 5286998287, "osm_type": "nodes" }, "geometry": { "type": "Point", "coordinates": [ 79.6121808, 13.1792949 ] } },
{ "type": "Feature", "properties": { "name": "Muthalamada", "name:en": null, "railway": "station", "ele": null, "operator:type": null, "layer": null, "addr:full": null, "addr:city": null, "source": null, "name:hi": null, "name:ta": null, "osm_id": 5353162332, "osm_type": "nodes" }, "geometry": { "type": "Point", "coordinates": [ 76.7730559, 10.6280011 ] } },
{ "type": "Feature", "properties": { "name": "Etakkot", "name:en": null, "railway": "station", "ele": null, "operator:type": null, "layer": null, "addr:full": null, "addr:city": null, "source": null, "name:hi": null, "name:ta": null, "osm_id": 5997795441, "osm_type": "nodes" }, "geometry": { "type": "Point", "coordinates": [ 75.4437585, 11.8060192 ] } },
{ "type": "Feature", "properties": { "name": "Pappinisseri", "name:en": null, "railway": "station", "ele": null, "operator:type": null, "layer": null, "addr:full": null, "addr:city": null, "source": null, "name:hi": null, "name:ta": null, "osm_id": 2587684539, "osm_type": "nodes" }, "geometry": { "type": "Point", "coordinates": [ 75.3470261, 11.9422912 ] } },
{ "type": "Feature", "properties": { "name": "Tozhuppedu", "name:en": null, "railway": "station", "ele": null, "operator:type": null, "layer": null, "addr:full": null, "addr:city": null, "source": null, "name:hi": null, "name:ta": null, "osm_id": 5287023929, "osm_type": "nodes" }, "geometry": { "type": "Point", "coordinates": [ 79.7847371, 12.368915 ] } },
{ "type": "Feature", "properties": { "name": "Kandambakkam", "name:en": null, "railway": "station", "ele": null, "operator:type": null, "layer": null, "addr:full": null, "addr:city": null, "source": null, "name:hi": null, "name:ta": null, "osm_id": 5303165642, "osm_type": "nodes" }, "geometry": { "type": "Point", "coordinates": [ 79.4554807, 11.8983376 ] } },
{ "type": "Feature", "properties": { "name": "Valapattanam", "name:en": null, "railway": "station", "ele": null, "operator:type": null, "layer": null, "addr:full": null, "addr:city": null, "source": null, "name:hi": null, "name:ta": null, "osm_id": 1712306275, "osm_type": "nodes" }, "geometry": { "type": "Point", "coordinates": [ 75.3463714, 11.9273761 ] } },
{ "type": "Feature", "properties": { "name": "Olakur", "name:en": null, "railway": "station", "ele": null, "operator:type": null, "layer": null, "addr:full": null, "addr:city": null, "source": null, "name:hi": null, "name:ta": null, "osm_id": 5276145853, "osm_type": "nodes" }, "geometry": { "type": "Point", "coordinates": [ 79.7209364, 12.3049348 ] } },
{ "type": "Feature", "properties": { "name": "Tikkotti", "name:en": null, "railway": "station", "ele": null, "operator:type": null, "layer": null, "addr:full": null, "addr:city": null, "source": null, "name:hi": null, "name:ta": null, "osm_id": 4825488169, "osm_type": "nodes" }, "geometry": { "type": "Point", "coordinates": [ 75.6262971, 11.4898203 ] } },
{ "type": "Feature", "properties": { "name": "Uttangalmangalam", "name:en": null, "railway": "station", "ele": null, "operator:type": null, "layer": null, "addr:full": null, "addr:city": null, "source": null, "name:hi": null, "name:ta": null, "osm_id": 5302069336, "osm_type": "nodes" }, "geometry": { "type": "Point", "coordinates": [ 79.4311559, 11.5400932 ] } },
{ "type": "Feature", "properties": { "name": "Jagannath Temple Gate", "name:en": null, "railway": "station", "ele": null, "operator:type": null, "layer": null, "addr:full": null, "addr:city": null, "source": null, "name:hi": null, "name:ta": null, "osm_id": 2989186895, "osm_type": "nodes" }, "geometry": { "type": "Point", "coordinates": [ 75.5081822, 11.7385768 ] } },
{ "type": "Feature", "properties": { "name": "Chemancheri", "name:en": null, "railway": "station", "ele": null, "operator:type": null, "layer": null, "addr:full": null, "addr:city": null, "source": null, "name:hi": null, "name:ta": null, "osm_id": 4764007222, "osm_type": "nodes" }, "geometry": { "type": "Point", "coordinates": [ 75.7192433, 11.4056131 ] } },
{ "type": "Feature", "properties": { "name": "Pugalur", "name:en": null, "railway": "station", "ele": null, "operator:type": null, "layer": null, "addr:full": null, "addr:city": null, "source": null, "name:hi": null, "name:ta": null, "osm_id": 367556529, "osm_type": "nodes" }, "geometry": { "type": "Point", "coordinates": [ 77.9916143, 11.0514132 ] } },
{ "type": "Feature", "properties": { "name": "Thalassery", "name:en": null, "railway": "station", "ele": null, "operator:type": null, "layer": null, "addr:full": null, "addr:city": null, "source": null, "name:hi": null, "name:ta": null, "osm_id": 1668653265, "osm_type": "nodes" }, "geometry": { "type": "Point", "coordinates": [ 75.4923063, 11.7538929 ] } },
{ "type": "Feature", "properties": { "name": "Kutralam", "name:en": null, "railway": "station", "ele": null, "operator:type": null, "layer": null, "addr:full": null, "addr:city": null, "source": null, "name:hi": null, "name:ta": "குத்தாலம்", "osm_id": 5300783981, "osm_type": "nodes" }, "geometry": { "type": "Point", "coordinates": [ 79.5571951, 11.0699202 ] } },
{ "type": "Feature", "properties": { "name": "Railway station", "name:en": null, "railway": "station", "ele": null, "operator:type": null, "layer": null, "addr:full": null, "addr:city": null, "source": null, "name:hi": null, "name:ta": null, "osm_id": 10946079482, "osm_type": "nodes" }, "geometry": { "type": "Point", "coordinates": [ 79.7280992, 11.2427327 ] } },
{ "type": "Feature", "properties": { "name": "Nidur", "name:en": null, "railway": "station", "ele": null, "operator:type": null, "layer": null, "addr:full": null, "addr:city": null, "source": null, "name:hi": null, "name:ta": null, "osm_id": 5300704885, "osm_type": "nodes" }, "geometry": { "type": "Point", "coordinates": [ 79.6454261, 11.1276246 ] } },
{ "type": "Feature", "properties": { "name": "Kannur South", "name:en": null, "railway": "station", "ele": null, "operator:type": null, "layer": null, "addr:full": null, "addr:city": null, "source": null, "name:hi": null, "name:ta": null, "osm_id": 5997827281, "osm_type": "nodes" }, "geometry": { "type": "Point", "coordinates": [ 75.4003216, 11.8668901 ] } },
{ "type": "Feature", "properties": { "name": "Khaigaon", "name:en": null, "railway": "station", "ele": null, "operator:type": null, "layer": null, "addr:full": null, "addr:city": null, "source": null, "name:hi": null, "name:ta": null, "osm_id": 4961308350, "osm_type": "nodes" }, "geometry": { "type": "Point", "coordinates": [ 76.4778113, 22.0062137 ] } },
{ "type": "Feature", "properties": { "name": "Kallidaikurichi", "name:en": null, "railway": "station", "ele": null, "operator:type": null, "layer": null, "addr:full": null, "addr:city": null, "source": null, "name:hi": null, "name:ta": null, "osm_id": 5351690389, "osm_type": "nodes" }, "geometry": { "type": "Point", "coordinates": [ 77.4651097, 8.6808989 ] } },
{ "type": "Feature", "properties": { "name": "Aralvaymozhi", "name:en": null, "railway": "station", "ele": null, "operator:type": null, "layer": null, "addr:full": null, "addr:city": null, "source": null, "name:hi": null, "name:ta": null, "osm_id": 353002340, "osm_type": "nodes" }, "geometry": { "type": "Point", "coordinates": [ 77.5279284, 8.2483557 ] } },
{ "type": "Feature", "properties": { "name": "Gadiganuru", "name:en": null, "railway": "station", "ele": null, "operator:type": null, "layer": null, "addr:full": null, "addr:city": null, "source": null, "name:hi": null, "name:ta": null, "osm_id": 1153240249, "osm_type": "nodes" }, "geometry": { "type": "Point", "coordinates": [ 76.5992329, 15.2185465 ] } },
{ "type": "Feature", "properties": { "name": "Ranjitpura", "name:en": null, "railway": "station", "ele": null, "operator:type": null, "layer": null, "addr:full": null, "addr:city": null, "source": null, "name:hi": null, "name:ta": null, "osm_id": 738269167, "osm_type": "nodes" }, "geometry": { "type": "Point", "coordinates": [ 76.5995537, 15.0561105 ] } },
{ "type": "Feature", "properties": { "name": "Dalapatisamudram", "name:en": null, "railway": "station", "ele": null, "operator:type": null, "layer": null, "addr:full": null, "addr:city": null, "source": null, "name:hi": null, "name:ta": null, "osm_id": 6047867257, "osm_type": "nodes" }, "geometry": { "type": "Point", "coordinates": [ 77.6382558, 8.4310991 ] } },
{ "type": "Feature", "properties": { "name": "Seydunganallur", "name:en": null, "railway": "station", "ele": null, "operator:type": null, "layer": null, "addr:full": null, "addr:city": null, "source": null, "name:hi": null, "name:ta": null, "osm_id": 5351690505, "osm_type": "nodes" }, "geometry": { "type": "Point", "coordinates": [ 77.8244303, 8.6630844 ] } },
{ "type": "Feature", "properties": { "name": "West Hill", "name:en": null, "railway": "station", "ele": null, "operator:type": null, "layer": null, "addr:full": null, "addr:city": null, "source": null, "name:hi": null, "name:ta": null, "osm_id": 1800658948, "osm_type": "nodes" }, "geometry": { "type": "Point", "coordinates": [ 75.7650382, 11.2851634 ] } },
{ "type": "Feature", "properties": { "name": "Edamann", "name:en": null, "railway": "station", "ele": null, "operator:type": null, "layer": null, "addr:full": null, "addr:city": null, "source": null, "name:hi": null, "name:ta": null, "osm_id": 5338935839, "osm_type": "nodes" }, "geometry": { "type": "Point", "coordinates": [ 76.982413, 9.0071677 ] } },
{ "type": "Feature", "properties": { "name": "Punalur", "name:en": null, "railway": "station", "ele": null, "operator:type": null, "layer": null, "addr:full": null, "addr:city": null, "source": null, "name:hi": null, "name:ta": "புனலூர்", "osm_id": 5338935840, "osm_type": "nodes" }, "geometry": { "type": "Point", "coordinates": [ 76.9164366, 9.0227095 ] } },
{ "type": "Feature", "properties": { "name": "Auvaneeswaram", "name:en": null, "railway": "station", "ele": null, "operator:type": null, "layer": null, "addr:full": null, "addr:city": null, "source": null, "name:hi": null, "name:ta": null, "osm_id": 1083771540, "osm_type": "nodes" }, "geometry": { "type": "Point", "coordinates": [ 76.8520854, 9.0352276 ] } },
{ "type": "Feature", "properties": { "name": "Ochira", "name:en": null, "railway": "station", "ele": null, "operator:type": null, "layer": null, "addr:full": null, "addr:city": "Oachira", "source": null, "name:hi": null, "name:ta": null, "osm_id": 10255800221, "osm_type": "nodes" }, "geometry": { "type": "Point", "coordinates": [ 76.5251596, 9.1318373 ] } },
{ "type": "Feature", "properties": { "name": "Kottarakara", "name:en": null, "railway": "station", "ele": null, "operator:type": null, "layer": null, "addr:full": null, "addr:city": null, "source": null, "name:hi": null, "name:ta": null, "osm_id": 5349398263, "osm_type": "nodes" }, "geometry": { "type": "Point", "coordinates": [ 76.765871, 9.0002635 ] } },
{ "type": "Feature", "properties": { "name": "Mulanturutti", "name:en": null, "railway": "station", "ele": null, "operator:type": null, "layer": null, "addr:full": null, "addr:city": null, "source": null, "name:hi": null, "name:ta": null, "osm_id": 5253929167, "osm_type": "nodes" }, "geometry": { "type": "Point", "coordinates": [ 76.3906682, 9.8977739 ] } },
{ "type": "Feature", "properties": { "name": "Chottanikkara Road", "name:en": null, "railway": "station", "ele": null, "operator:type": null, "layer": null, "addr:full": null, "addr:city": "Kureekkad", "source": null, "name:hi": null, "name:ta": null, "osm_id": 4825232028, "osm_type": "nodes" }, "geometry": { "type": "Point", "coordinates": [ 76.3759783, 9.9244744 ] } },
{ "type": "Feature", "properties": { "name": "Samalkot Junction", "name:en": null, "railway": "station", "ele": null, "operator:type": null, "layer": null, "addr:full": null, "addr:city": null, "source": null, "name:hi": null, "name:ta": null, "osm_id": 726377237, "osm_type": "nodes" }, "geometry": { "type": "Point", "coordinates": [ 82.1689895, 17.0453164 ] } },
{ "type": "Feature", "properties": { "name": "Khallikot", "name:en": null, "railway": "station", "ele": null, "operator:type": null, "layer": null, "addr:full": null, "addr:city": null, "source": null, "name:hi": null, "name:ta": null, "osm_id": 6801253146, "osm_type": "nodes" }, "geometry": { "type": "Point", "coordinates": [ 85.1277618, 19.611017 ] } },
{ "type": "Feature", "properties": { "name": "Balangir Junction", "name:en": null, "railway": "station", "ele": null, "operator:type": null, "layer": null, "addr:full": null, "addr:city": null, "source": null, "name:hi": null, "name:ta": null, "osm_id": 1342435695, "osm_type": "nodes" }, "geometry": { "type": "Point", "coordinates": [ 83.4943334, 20.6891742 ] } },
{ "type": "Feature", "properties": { "name": "Bhusandpur", "name:en": null, "railway": "station", "ele": null, "operator:type": null, "layer": null, "addr:full": null, "addr:city": null, "source": null, "name:hi": null, "name:ta": null, "osm_id": 6801166305, "osm_type": "nodes" }, "geometry": { "type": "Point", "coordinates": [ 85.4772096, 19.9528387 ] } },
{ "type": "Feature", "properties": { "name": "Katphal", "name:en": null, "railway": "station", "ele": null, "operator:type": null, "layer": null, "addr:full": null, "addr:city": null, "source": null, "name:hi": null, "name:ta": null, "osm_id": 5149306800, "osm_type": "nodes" }, "geometry": { "type": "Point", "coordinates": [ 74.5958191, 18.2330554 ] } },
{ "type": "Feature", "properties": { "name": "Lonand", "name:en": null, "railway": "station", "ele": null, "operator:type": null, "layer": null, "addr:full": null, "addr:city": null, "source": null, "name:hi": null, "name:ta": null, "osm_id": 1604806182, "osm_type": "nodes" }, "geometry": { "type": "Point", "coordinates": [ 74.1902209, 18.0406799 ] } },
{ "type": "Feature", "properties": { "name": "Nira", "name:en": null, "railway": "station", "ele": null, "operator:type": null, "layer": null, "addr:full": null, "addr:city": null, "source": null, "name:hi": null, "name:ta": null, "osm_id": 1604806183, "osm_type": "nodes" }, "geometry": { "type": "Point", "coordinates": [ 74.208078, 18.1054456 ] } },
{ "type": "Feature", "properties": { "name": "Chirmiri", "name:en": null, "railway": "station", "ele": null, "operator:type": null, "layer": null, "addr:full": null, "addr:city": null, "source": null, "name:hi": null, "name:ta": null, "osm_id": 910649003, "osm_type": "nodes" }, "geometry": { "type": "Point", "coordinates": [ 82.3498026, 23.1898407 ] } },
{ "type": "Feature", "properties": { "name": "Tiger Hill", "name:en": null, "railway": "station", "ele": null, "operator:type": null, "layer": null, "addr:full": null, "addr:city": null, "source": null, "name:hi": null, "name:ta": null, "osm_id": 910781008, "osm_type": "nodes" }, "geometry": { "type": "Point", "coordinates": [ 82.3892976, 23.2402788 ] } },
{ "type": "Feature", "properties": { "name": "Karanja", "name:en": null, "railway": "station", "ele": null, "operator:type": null, "layer": null, "addr:full": null, "addr:city": null, "source": null, "name:hi": null, "name:ta": null, "osm_id": 1809954056, "osm_type": "nodes" }, "geometry": { "type": "Point", "coordinates": [ 77.4812476, 20.4919745 ] } },
{ "type": "Feature", "properties": { "name": "Magardoh", "name:en": null, "railway": "station", "ele": null, "operator:type": null, "layer": null, "addr:full": null, "addr:city": null, "source": null, "name:hi": null, "name:ta": null, "osm_id": 6189671247, "osm_type": "nodes" }, "geometry": { "type": "Point", "coordinates": [ 77.8942027, 22.2455699 ] } },
{ "type": "Feature", "properties": { "name": "Khanapur Junction", "name:en": null, "railway": "station", "ele": null, "operator:type": null, "layer": null, "addr:full": null, "addr:city": null, "source": null, "name:hi": null, "name:ta": null, "osm_id": 710027160, "osm_type": "nodes" }, "geometry": { "type": "Point", "coordinates": [ 77.3842209, 17.9424998 ] } },
{ "type": "Feature", "properties": { "name": "Pullampet", "name:en": null, "railway": "station", "ele": null, "operator:type": null, "layer": null, "addr:full": null, "addr:city": null, "source": null, "name:hi": null, "name:ta": null, "osm_id": 2527679022, "osm_type": "nodes" }, "geometry": { "type": "Point", "coordinates": [ 79.2052095, 14.1205158 ] } },
{ "type": "Feature", "properties": { "name": "Cherlopalli", "name:en": null, "railway": "station", "ele": null, "operator:type": null, "layer": null, "addr:full": null, "addr:city": null, "source": null, "name:hi": "चेलौपल्लि", "name:ta": null, "osm_id": 7512326464, "osm_type": "nodes" }, "geometry": { "type": "Point", "coordinates": [ 79.3992716, 14.1420559 ] } },
{ "type": "Feature", "properties": { "name": "Dantan", "name:en": null, "railway": "station", "ele": null, "operator:type": null, "layer": null, "addr:full": null, "addr:city": null, "source": null, "name:hi": null, "name:ta": null, "osm_id": 1361560388, "osm_type": "nodes" }, "geometry": { "type": "Point", "coordinates": [ 87.284002, 21.9305544 ] } },
{ "type": "Feature", "properties": { "name": "Tomka Jn.", "name:en": null, "railway": "station", "ele": null, "operator:type": null, "layer": null, "addr:full": null, "addr:city": null, "source": null, "name:hi": null, "name:ta": null, "osm_id": 1494045323, "osm_type": "nodes" }, "geometry": { "type": "Point", "coordinates": [ 85.9761779, 21.1077362 ] } },
{ "type": "Feature", "properties": { "name": "Saragbundia", "name:en": null, "railway": "station", "ele": null, "operator:type": null, "layer": null, "addr:full": null, "addr:city": null, "source": null, "name:hi": null, "name:ta": null, "osm_id": 2049342120, "osm_type": "nodes" }, "geometry": { "type": "Point", "coordinates": [ 82.7328694, 22.2137774 ] } },
{ "type": "Feature", "properties": { "name": "Kata Road", "name:en": null, "railway": "station", "ele": null, "operator:type": null, "layer": null, "addr:full": null, "addr:city": null, "source": null, "name:hi": null, "name:ta": null, "osm_id": 6200698449, "osm_type": "nodes" }, "geometry": { "type": "Point", "coordinates": [ 77.112041, 20.1855922 ] } },
{ "type": "Feature", "properties": { "name": "Hagari", "name:en": null, "railway": "station", "ele": null, "operator:type": null, "layer": null, "addr:full": null, "addr:city": null, "source": null, "name:hi": null, "name:ta": null, "osm_id": 5764377157, "osm_type": "nodes" }, "geometry": { "type": "Point", "coordinates": [ 77.0552612, 15.1510967 ] } },
{ "type": "Feature", "properties": { "name": "Rajanukunte", "name:en": null, "railway": "station", "ele": null, "operator:type": null, "layer": null, "addr:full": null, "addr:city": null, "source": null, "name:hi": null, "name:ta": null, "osm_id": 5303386567, "osm_type": "nodes" }, "geometry": { "type": "Point", "coordinates": [ 77.5655922, 13.1746304 ] } },
{ "type": "Feature", "properties": { "name": "Avuladatla", "name:en": null, "railway": "station", "ele": null, "operator:type": null, "layer": null, "addr:full": null, "addr:city": null, "source": null, "name:hi": null, "name:ta": null, "osm_id": 6120483061, "osm_type": "nodes" }, "geometry": { "type": "Point", "coordinates": [ 76.9740174, 14.6897588 ] } },
{ "type": "Feature", "properties": { "name": "Banosa", "name:en": null, "railway": "station", "ele": null, "operator:type": null, "layer": null, "addr:full": null, "addr:city": null, "source": null, "name:hi": null, "name:ta": null, "osm_id": 2061738673, "osm_type": "nodes" }, "geometry": { "type": "Point", "coordinates": [ 77.3261342, 20.9221016 ] } },
{ "type": "Feature", "properties": { "name": "Valliveru", "name:en": null, "railway": "station", "ele": null, "operator:type": null, "layer": null, "addr:full": null, "addr:city": null, "source": null, "name:hi": null, "name:ta": null, "osm_id": 2525420366, "osm_type": "nodes" }, "geometry": { "type": "Point", "coordinates": [ 80.6060268, 16.189668 ] } },
{ "type": "Feature", "properties": { "name": "Sant Gadge Baba Yavatmal Railway Station", "name:en": null, "railway": "station", "ele": null, "operator:type": null, "layer": null, "addr:full": null, "addr:city": "Yavatmal", "source": null, "name:hi": null, "name:ta": null, "osm_id": 10777422734, "osm_type": "nodes" }, "geometry": { "type": "Point", "coordinates": [ 78.0912786, 20.3668358 ] } },
{ "type": "Feature", "properties": { "name": "Pattabiram Military Siding", "name:en": null, "railway": "station", "ele": null, "operator:type": null, "layer": null, "addr:full": null, "addr:city": null, "source": null, "name:hi": null, "name:ta": null, "osm_id": 262308384, "osm_type": "nodes" }, "geometry": { "type": "Point", "coordinates": [ 80.0601177, 13.1373759 ] } },
{ "type": "Feature", "properties": { "name": "Pattabiram E Depot", "name:en": null, "railway": "station", "ele": null, "operator:type": null, "layer": null, "addr:full": null, "addr:city": null, "source": null, "name:hi": null, "name:ta": null, "osm_id": 5274212914, "osm_type": "nodes" }, "geometry": { "type": "Point", "coordinates": [ 80.0686194, 13.1460141 ] } },
{ "type": "Feature", "properties": { "name": "Bacheli", "name:en": null, "railway": "station", "ele": null, "operator:type": null, "layer": null, "addr:full": null, "addr:city": null, "source": null, "name:hi": null, "name:ta": null, "osm_id": 1341653089, "osm_type": "nodes" }, "geometry": { "type": "Point", "coordinates": [ 81.2387081, 18.7038788 ] } },
{ "type": "Feature", "properties": { "name": "Karavadi", "name:en": null, "railway": "station", "ele": null, "operator:type": null, "layer": null, "addr:full": null, "addr:city": null, "source": null, "name:hi": null, "name:ta": null, "osm_id": 1194197958, "osm_type": "nodes" }, "geometry": { "type": "Point", "coordinates": [ 80.1135316, 15.5526462 ] } },
{ "type": "Feature", "properties": { "name": "Padugupadu", "name:en": null, "railway": "station", "ele": null, "operator:type": null, "layer": null, "addr:full": null, "addr:city": null, "source": null, "name:hi": null, "name:ta": null, "osm_id": 1493882442, "osm_type": "nodes" }, "geometry": { "type": "Point", "coordinates": [ 79.990046, 14.4980674 ] } },
{ "type": "Feature", "properties": { "name": "Venkatagiri", "name:en": null, "railway": "station", "ele": null, "operator:type": null, "layer": null, "addr:full": null, "addr:city": null, "source": null, "name:hi": null, "name:ta": null, "osm_id": 1844931498, "osm_type": "nodes" }, "geometry": { "type": "Point", "coordinates": [ 79.6044871, 13.9442505 ] } },
{ "type": "Feature", "properties": { "name": "Vedayapalem", "name:en": null, "railway": "station", "ele": null, "operator:type": null, "layer": null, "addr:full": null, "addr:city": null, "source": null, "name:hi": null, "name:ta": null, "osm_id": 1070247123, "osm_type": "nodes" }, "geometry": { "type": "Point", "coordinates": [ 79.9574923, 14.4053077 ] } },
{ "type": "Feature", "properties": { "name": "Kalamassery", "name:en": null, "railway": "station", "ele": null, "operator:type": null, "layer": null, "addr:full": null, "addr:city": null, "source": null, "name:hi": null, "name:ta": null, "osm_id": 4760503121, "osm_type": "nodes" }, "geometry": { "type": "Point", "coordinates": [ 76.3272102, 10.0623617 ] } },
{ "type": "Feature", "properties": { "name": "Keolari", "name:en": null, "railway": "station", "ele": null, "operator:type": null, "layer": null, "addr:full": null, "addr:city": null, "source": null, "name:hi": "केवलारी", "name:ta": null, "osm_id": 2039093406, "osm_type": "nodes" }, "geometry": { "type": "Point", "coordinates": [ 79.9091741, 22.3751368 ] } },
{ "type": "Feature", "properties": { "name": "Ghunsore", "name:en": null, "railway": "station", "ele": null, "operator:type": null, "layer": null, "addr:full": null, "addr:city": null, "source": null, "name:hi": "घंसौर", "name:ta": null, "osm_id": 6130404835, "osm_type": "nodes" }, "geometry": { "type": "Point", "coordinates": [ 79.9545903, 22.6556304 ] } },
{ "type": "Feature", "properties": { "name": "Kokpara", "name:en": null, "railway": "station", "ele": null, "operator:type": null, "layer": null, "addr:full": null, "addr:city": null, "source": null, "name:hi": null, "name:ta": null, "osm_id": 654096682, "osm_type": "nodes" }, "geometry": { "type": "Point", "coordinates": [ 86.634545, 22.4747948 ] } },
{ "type": "Feature", "properties": { "name": "Desari", "name:en": null, "railway": "station", "ele": null, "operator:type": null, "layer": null, "addr:full": null, "addr:city": null, "source": null, "name:hi": null, "name:ta": null, "osm_id": 1780321390, "osm_type": "nodes" }, "geometry": { "type": "Point", "coordinates": [ 85.4085831, 25.6678427 ] } },
{ "type": "Feature", "properties": { "name": "Chakmakrand", "name:en": null, "railway": "station", "ele": null, "operator:type": null, "layer": null, "addr:full": null, "addr:city": null, "source": null, "name:hi": null, "name:ta": null, "osm_id": 8999700651, "osm_type": "nodes" }, "geometry": { "type": "Point", "coordinates": [ 85.2742605, 25.6977637 ] } },
{ "type": "Feature", "properties": { "name": "Venkatachalam", "name:en": null, "railway": "station", "ele": null, "operator:type": null, "layer": null, "addr:full": null, "addr:city": null, "source": null, "name:hi": null, "name:ta": null, "osm_id": 1070247119, "osm_type": "nodes" }, "geometry": { "type": "Point", "coordinates": [ 79.9273263, 14.3270809 ] } },
{ "type": "Feature", "properties": { "name": "Nukapalli Mallial", "name:en": null, "railway": "station", "ele": null, "operator:type": null, "layer": null, "addr:full": null, "addr:city": null, "source": null, "name:hi": null, "name:ta": null, "osm_id": 2962222164, "osm_type": "nodes" }, "geometry": { "type": "Point", "coordinates": [ 78.9201652, 18.7058534 ] } },
{ "type": "Feature", "properties": { "name": "Honnavalli Road", "name:en": null, "railway": "station", "ele": null, "operator:type": null, "layer": null, "addr:full": null, "addr:city": null, "source": null, "name:hi": null, "name:ta": null, "osm_id": 1976851798, "osm_type": "nodes" }, "geometry": { "type": "Point", "coordinates": [ 76.3683093, 13.2753915 ] } },